$GPGGA,214646.487,4531.503,N,12241.115,W,1,12,1.0,0.0,M,0.0,M,,*70
$GPGSA,A,3,01,02,03,04,05,06,07,08,09,10,11,12,1.0,1.0,1.0*30
$GPRMC,214646.487,A,4531.503,N,12241.115,W,038.9,089.2,261118,000.0,W*68
$GPGGA,214647.487,4531.503,N,12241.100,W,1,12,1.0,0.0,M,0.0,M,,*75
$GPGSA,A,3,01,02,03,04,05,06,07,08,09,10,11,12,1.0,1.0,1.0*30
$GPRMC,214647.487,A,4531.503,N,12241.100,W,038.9,089.2,261118,000.0,W*6D
$GPGGA,214648.487,4531.503,N,12241.085,W,1,12,1.0,0.0,M,0.0,M,,*76
$GPGSA,A,3,01,02,03,04,05,06,07,08,09,10,11,12,1.0,1.0,1.0*30
$GPRMC,214648.487,A,4531.503,N,12241.085,W,038.9,089.2,261118,000.0,W*6E
$GPGGA,214649.487,4531.503,N,12241.069,W,1,12,1.0,0.0,M,0.0,M,,*75
$GPGSA,A,3,01,02,03,04,05,06,07,08,09,10,11,12,1.0,1.0,1.0*30
$GPRMC,214649.487,A,4531.503,N,12241.069,W,038.9,089.2,261118,000.0,W*6D
$GPGGA,214650.487,4531.503,N,12241.054,W,1,12,1.0,0.0,M,0.0,M,,*73
$GPGSA,A,3,01,02,03,04,05,06,07,08,09,10,11,12,1.0,1.0,1.0*30
$GPRMC,214650.487,A,4531.503,N,12241.054,W,038.9,089.2,261118,000.0,W*6B
$GPGGA,214651.487,4531.504,N,12241.038,W,1,12,1.0,0.0,M,0.0,M,,*7F
$GPGSA,A,3,01,02,03,04,05,06,07,08,09,10,11,12,1.0,1.0,1.0*30
$GPRMC,214651.487,A,4531.504,N,12241.038,W,038.9,089.2,261118,000.0,W*67
$GPGGA,214652.487,4531.504,N,12241.023,W,1,12,1.0,0.0,M,0.0,M,,*76
$GPGSA,A,3,01,02,03,04,05,06,07,08,09,10,11,12,1.0,1.0,1.0*30
$GPRMC,214652.487,A,4531.504,N,12241.023,W,038.9,089.2,261118,000.0,W*6E
$GPGGA,214653.487,4531.504,N,12241.008,W,1,12,1.0,0.0,M,0.0,M,,*7E
$GPGSA,A,3,01,02,03,04,05,06,07,08,09,10,11,12,1.0,1.0,1.0*30
$GPRMC,214653.487,A,4531.504,N,12241.008,W,038.9,089.2,261118,000.0,W*66
$GPGGA,214654.487,4531.504,N,12240.992,W,1,12,1.0,0.0,M,0.0,M,,*72
$GPGSA,A,3,01,02,03,04,05,06,07,08,09,10,11,12,1.0,1.0,1.0*30
$GPRMC,214654.487,A,4531.504,N,12240.992,W,038.9,178.4,261118,000.0,W*63
$GPGGA,214655.487,4531.494,N,12240.992,W,1,12,1.0,0.0,M,0.0,M,,*7B
$GPGSA,A,3,01,02,03,04,05,06,07,08,09,10,11,12,1.0,1.0,1.0*30
$GPRMC,214655.487,A,4531.494,N,12240.992,W,038.9,178.4,261118,000.0,W*6A
$GPGGA,214656.487,4531.483,N,12240.992,W,1,12,1.0,0.0,M,0.0,M,,*7E
$GPGSA,A,3,01,02,03,04,05,06,07,08,09,10,11,12,1.0,1.0,1.0*30
$GPRMC,214656.487,A,4531.483,N,12240.992,W,038.9,178.4,261118,000.0,W*6F
$GPGGA,214657.487,4531.472,N,12240.991,W,1,12,1.0,0.0,M,0.0,M,,*72
$GPGSA,A,3,01,02,03,04,05,06,07,08,09,10,11,12,1.0,1.0,1.0*30
$GPRMC,214657.487,A,4531.472,N,12240.991,W,038.9,178.4,261118,000.0,W*63
$GPGGA,214658.487,4531.461,N,12240.991,W,1,12,1.0,0.0,M,0.0,M,,*7F
$GPGSA,A,3,01,02,03,04,05,06,07,08,09,10,11,12,1.0,1.0,1.0*30
$GPRMC,214658.487,A,4531.461,N,12240.991,W,038.9,178.4,261118,000.0,W*6E
$GPGGA,214659.487,4531.450,N,12240.991,W,1,12,1.0,0.0,M,0.0,M,,*7C
$GPGSA,A,3,01,02,03,04,05,06,07,08,09,10,11,12,1.0,1.0,1.0*30
$GPRMC,214659.487,A,4531.450,N,12240.991,W,038.9,178.4,261118,000.0,W*6D
$GPGGA,214700.487,4531.440,N,12240.990,W,1,12,1.0,0.0,M,0.0,M,,*71
$GPGSA,A,3,01,02,03,04,05,06,07,08,09,10,11,12,1.0,1.0,1.0*30
$GPRMC,214700.487,A,4531.440,N,12240.990,W,038.9,178.4,261118,000.0,W*60
$GPGGA,214701.487,4531.429,N,12240.990,W,1,12,1.0,0.0,M,0.0,M,,*7F
$GPGSA,A,3,01,02,03,04,05,06,07,08,09,10,11,12,1.0,1.0,1.0*30
$GPRMC,214701.487,A,4531.429,N,12240.990,W,038.9,178.4,261118,000.0,W*6E
$GPGGA,214702.487,4531.418,N,12240.990,W,1,12,1.0,0.0,M,0.0,M,,*7E
$GPGSA,A,3,01,02,03,04,05,06,07,08,09,10,11,12,1.0,1.0,1.0*30
$GPRMC,214702.487,A,4531.418,N,12240.990,W,038.9,178.4,261118,000.0,W*6F
$GPGGA,214703.487,4531.407,N,12240.990,W,1,12,1.0,0.0,M,0.0,M,,*71
$GPGSA,A,3,01,02,03,04,05,06,07,08,09,10,11,12,1.0,1.0,1.0*30
$GPRMC,214703.487,A,4531.407,N,12240.990,W,038.9,178.4,261118,000.0,W*60
$GPGGA,214704.487,4531.396,N,12240.989,W,1,12,1.0,0.0,M,0.0,M,,*71
$GPGSA,A,3,01,02,03,04,05,06,07,08,09,10,11,12,1.0,1.0,1.0*30
$GPRMC,214704.487,A,4531.396,N,12240.989,W,038.9,178.4,261118,000.0,W*60
$GPGGA,214705.487,4531.386,N,12240.989,W,1,12,1.0,0.0,M,0.0,M,,*71
$GPGSA,A,3,01,02,03,04,05,06,07,08,09,10,11,12,1.0,1.0,1.0*30
$GPRMC,214705.487,A,4531.386,N,12240.989,W,038.9,178.4,261118,000.0,W*60
$GPGGA,214706.487,4531.375,N,12240.989,W,1,12,1.0,0.0,M,0.0,M,,*7E
$GPGSA,A,3,01,02,03,04,05,06,07,08,09,10,11,12,1.0,1.0,1.0*30
$GPRMC,214706.487,A,4531.375,N,12240.989,W,038.9,178.4,261118,000.0,W*6F
$GPGGA,214707.487,4531.364,N,12240.988,W,1,12,1.0,0.0,M,0.0,M,,*7E
$GPGSA,A,3,01,02,03,04,05,06,07,08,09,10,11,12,1.0,1.0,1.0*30
$GPRMC,214707.487,A,4531.364,N,12240.988,W,038.9,178.4,261118,000.0,W*6F
$GPGGA,214708.487,4531.353,N,12240.988,W,1,12,1.0,0.0,M,0.0,M,,*75
$GPGSA,A,3,01,02,03,04,05,06,07,08,09,10,11,12,1.0,1.0,1.0*30
$GPRMC,214708.487,A,4531.353,N,12240.988,W,038.9,104.8,261118,000.0,W*63
$GPGGA,214709.487,4531.349,N,12240.974,W,1,12,1.0,0.0,M,0.0,M,,*7C
$GPGSA,A,3,01,02,03,04,05,06,07,08,09,10,11,12,1.0,1.0,1.0*30
$GPRMC,214709.487,A,4531.349,N,12240.974,W,038.9,104.8,261118,000.0,W*6A
$GPGGA,214710.487,4531.346,N,12240.959,W,1,12,1.0,0.0,M,0.0,M,,*74
$GPGSA,A,3,01,02,03,04,05,06,07,08,09,10,11,12,1.0,1.0,1.0*30
$GPRMC,214710.487,A,4531.346,N,12240.959,W,038.9,104.8,261118,000.0,W*62
$GPGGA,214711.487,4531.342,N,12240.945,W,1,12,1.0,0.0,M,0.0,M,,*7C
$GPGSA,A,3,01,02,03,04,05,06,07,08,09,10,11,12,1.0,1.0,1.0*30
$GPRMC,214711.487,A,4531.342,N,12240.945,W,038.9,104.8,261118,000.0,W*6A
$GPGGA,214712.487,4531.338,N,12240.930,W,1,12,1.0,0.0,M,0.0,M,,*70
$GPGSA,A,3,01,02,03,04,05,06,07,08,09,10,11,12,1.0,1.0,1.0*30
$GPRMC,214712.487,A,4531.338,N,12240.930,W,038.9,104.8,261118,000.0,W*66
$GPGGA,214713.487,4531.334,N,12240.916,W,1,12,1.0,0.0,M,0.0,M,,*79
$GPGSA,A,3,01,02,03,04,05,06,07,08,09,10,11,12,1.0,1.0,1.0*30
$GPRMC,214713.487,A,4531.334,N,12240.916,W,038.9,104.8,261118,000.0,W*6F
$GPGGA,214714.487,4531.330,N,12240.902,W,1,12,1.0,0.0,M,0.0,M,,*7F
$GPGSA,A,3,01,02,03,04,05,06,07,08,09,10,11,12,1.0,1.0,1.0*30
$GPRMC,214714.487,A,4531.330,N,12240.902,W,038.9,104.8,261118,000.0,W*69
$GPGGA,214715.487,4531.327,N,12240.887,W,1,12,1.0,0.0,M,0.0,M,,*74
$GPGSA,A,3,01,02,03,04,05,06,07,08,09,10,11,12,1.0,1.0,1.0*30
$GPRMC,214715.487,A,4531.327,N,12240.887,W,038.9,104.8,261118,000.0,W*62
$GPGGA,214716.487,4531.323,N,12240.873,W,1,12,1.0,0.0,M,0.0,M,,*78
$GPGSA,A,3,01,02,03,04,05,06,07,08,09,10,11,12,1.0,1.0,1.0*30
$GPRMC,214716.487,A,4531.323,N,12240.873,W,038.9,104.8,261118,000.0,W*6E
$GPGGA,214717.487,4531.319,N,12240.858,W,1,12,1.0,0.0,M,0.0,M,,*79
$GPGSA,A,3,01,02,03,04,05,06,07,08,09,10,11,12,1.0,1.0,1.0*30
$GPRMC,214717.487,A,4531.319,N,12240.858,W,038.9,104.8,261118,000.0,W*6F
$GPGGA,214718.487,4531.315,N,12240.844,W,1,12,1.0,0.0,M,0.0,M,,*77
$GPGSA,A,3,01,02,03,04,05,06,07,08,09,10,11,12,1.0,1.0,1.0*30
$GPRMC,214718.487,A,4531.315,N,12240.844,W,038.9,104.8,261118,000.0,W*61
$GPGGA,214719.487,4531.312,N,12240.829,W,1,12,1.0,0.0,M,0.0,M,,*7A
$GPGSA,A,3,01,02,03,04,05,06,07,08,09,10,11,12,1.0,1.0,1.0*30
$GPRMC,214719.487,A,4531.312,N,12240.829,W,038.9,104.8,261118,000.0,W*6C
$GPGGA,214720.487,4531.308,N,12240.815,W,1,12,1.0,0.0,M,0.0,M,,*74
$GPGSA,A,3,01,02,03,04,05,06,07,08,09,10,11,12,1.0,1.0,1.0*30
$GPRMC,214720.487,A,4531.308,N,12240.815,W,038.9,104.8,261118,000.0,W*62
$GPGGA,214721.487,4531.304,N,12240.801,W,1,12,1.0,0.0,M,0.0,M,,*7C
$GPGSA,A,3,01,02,03,04,05,06,07,08,09,10,11,12,1.0,1.0,1.0*30
$GPRMC,214721.487,A,4531.304,N,12240.801,W,038.9,104.8,261118,000.0,W*6A
$GPGGA,214722.487,4531.300,N,12240.786,W,1,12,1.0,0.0,M,0.0,M,,*7B
$GPGSA,A,3,01,02,03,04,05,06,07,08,09,10,11,12,1.0,1.0,1.0*30
$GPRMC,214722.487,A,4531.300,N,12240.786,W,038.9,104.8,261118,000.0,W*6D
$GPGGA,214723.487,4531.296,N,12240.772,W,1,12,1.0,0.0,M,0.0,M,,*7F
$GPGSA,A,3,01,02,03,04,05,06,07,08,09,10,11,12,1.0,1.0,1.0*30
$GPRMC,214723.487,A,4531.296,N,12240.772,W,038.9,104.8,261118,000.0,W*69
$GPGGA,214724.487,4531.293,N,12240.757,W,1,12,1.0,0.0,M,0.0,M,,*7A
$GPGSA,A,3,01,02,03,04,05,06,07,08,09,10,11,12,1.0,1.0,1.0*30
$GPRMC,214724.487,A,4531.293,N,12240.757,W,038.9,104.8,261118,000.0,W*6C
$GPGGA,214725.487,4531.289,N,12240.743,W,1,12,1.0,0.0,M,0.0,M,,*75
$GPGSA,A,3,01,02,03,04,05,06,07,08,09,10,11,12,1.0,1.0,1.0*30
$GPRMC,214725.487,A,4531.289,N,12240.743,W,038.9,104.8,261118,000.0,W*63
$GPGGA,214726.487,4531.285,N,12240.728,W,1,12,1.0,0.0,M,0.0,M,,*77
$GPGSA,A,3,01,02,03,04,05,06,07,08,09,10,11,12,1.0,1.0,1.0*30
$GPRMC,214726.487,A,4531.285,N,12240.728,W,038.9,104.8,261118,000.0,W*61
$GPGGA,214727.487,4531.281,N,12240.714,W,1,12,1.0,0.0,M,0.0,M,,*7D
$GPGSA,A,3,01,02,03,04,05,06,07,08,09,10,11,12,1.0,1.0,1.0*30
$GPRMC,214727.487,A,4531.281,N,12240.714,W,038.9,030.8,261118,000.0,W*6D
$GPGGA,214728.487,4531.291,N,12240.708,W,1,12,1.0,0.0,M,0.0,M,,*7E
$GPGSA,A,3,01,02,03,04,05,06,07,08,09,10,11,12,1.0,1.0,1.0*30
$GPRMC,214728.487,A,4531.291,N,12240.708,W,038.9,030.8,261118,000.0,W*6E
$GPGGA,214729.487,4531.301,N,12240.702,W,1,12,1.0,0.0,M,0.0,M,,*7D
$GPGSA,A,3,01,02,03,04,05,06,07,08,09,10,11,12,1.0,1.0,1.0*30
$GPRMC,214729.487,A,4531.301,N,12240.702,W,038.9,030.8,261118,000.0,W*6D
$GPGGA,214730.487,4531.311,N,12240.696,W,1,12,1.0,0.0,M,0.0,M,,*78
$GPGSA,A,3,01,02,03,04,05,06,07,08,09,10,11,12,1.0,1.0,1.0*30
$GPRMC,214730.487,A,4531.311,N,12240.696,W,038.9,030.8,261118,000.0,W*68
$GPGGA,214731.487,4531.321,N,12240.690,W,1,12,1.0,0.0,M,0.0,M,,*7C
$GPGSA,A,3,01,02,03,04,05,06,07,08,09,10,11,12,1.0,1.0,1.0*30
$GPRMC,214731.487,A,4531.321,N,12240.690,W,038.9,030.8,261118,000.0,W*6C
$GPGGA,214732.487,4531.331,N,12240.684,W,1,12,1.0,0.0,M,0.0,M,,*7B
$GPGSA,A,3,01,02,03,04,05,06,07,08,09,10,11,12,1.0,1.0,1.0*30
$GPRMC,214732.487,A,4531.331,N,12240.684,W,038.9,030.8,261118,000.0,W*6B
$GPGGA,214733.487,4531.341,N,12240.678,W,1,12,1.0,0.0,M,0.0,M,,*7E
$GPGSA,A,3,01,02,03,04,05,06,07,08,09,10,11,12,1.0,1.0,1.0*30
$GPRMC,214733.487,A,4531.341,N,12240.678,W,038.9,030.8,261118,000.0,W*6E
$GPGGA,214734.487,4531.351,N,12240.672,W,1,12,1.0,0.0,M,0.0,M,,*72
$GPGSA,A,3,01,02,03,04,05,06,07,08,09,10,11,12,1.0,1.0,1.0*30
$GPRMC,214734.487,A,4531.351,N,12240.672,W,038.9,315.0,261118,000.0,W*6E
$GPGGA,214735.487,4531.360,N,12240.681,W,1,12,1.0,0.0,M,0.0,M,,*7D
$GPGSA,A,3,01,02,03,04,05,06,07,08,09,10,11,12,1.0,1.0,1.0*30
$GPRMC,214735.487,A,4531.360,N,12240.681,W,038.9,268.3,261118,000.0,W*69
$GPGGA,214736.487,4531.359,N,12240.697,W,1,12,1.0,0.0,M,0.0,M,,*73
$GPGSA,A,3,01,02,03,04,05,06,07,08,09,10,11,12,1.0,1.0,1.0*30
$GPRMC,214736.487,A,4531.359,N,12240.697,W,038.9,268.3,261118,000.0,W*67
$GPGGA,214737.487,4531.359,N,12240.712,W,1,12,1.0,0.0,M,0.0,M,,*7E
$GPGSA,A,3,01,02,03,04,05,06,07,08,09,10,11,12,1.0,1.0,1.0*30
$GPRMC,214737.487,A,4531.359,N,12240.712,W,038.9,268.3,261118,000.0,W*6A
$GPGGA,214738.487,4531.358,N,12240.727,W,1,12,1.0,0.0,M,0.0,M,,*76
$GPGSA,A,3,01,02,03,04,05,06,07,08,09,10,11,12,1.0,1.0,1.0*30
$GPRMC,214738.487,A,4531.358,N,12240.727,W,038.9,268.3,261118,000.0,W*62
$GPGGA,214739.487,4531.358,N,12240.743,W,1,12,1.0,0.0,M,0.0,M,,*75
$GPGSA,A,3,01,02,03,04,05,06,07,08,09,10,11,12,1.0,1.0,1.0*30
$GPRMC,214739.487,A,4531.358,N,12240.743,W,038.9,356.2,261118,000.0,W*6C
$GPGGA,214740.487,4531.369,N,12240.743,W,1,12,1.0,0.0,M,0.0,M,,*79
$GPGSA,A,3,01,02,03,04,05,06,07,08,09,10,11,12,1.0,1.0,1.0*30
$GPRMC,214740.487,A,4531.369,N,12240.743,W,038.9,356.2,261118,000.0,W*60
$GPGGA,214741.487,4531.379,N,12240.744,W,1,12,1.0,0.0,M,0.0,M,,*7E
$GPGSA,A,3,01,02,03,04,05,06,07,08,09,10,11,12,1.0,1.0,1.0*30
$GPRMC,214741.487,A,4531.379,N,12240.744,W,038.9,356.2,261118,000.0,W*67
$GPGGA,214742.487,4531.390,N,12240.745,W,1,12,1.0,0.0,M,0.0,M,,*7B
$GPGSA,A,3,01,02,03,04,05,06,07,08,09,10,11,12,1.0,1.0,1.0*30
$GPRMC,214742.487,A,4531.390,N,12240.745,W,038.9,356.2,261118,000.0,W*62
$GPGGA,214743.487,4531.401,N,12240.746,W,1,12,1.0,0.0,M,0.0,M,,*76
$GPGSA,A,3,01,02,03,04,05,06,07,08,09,10,11,12,1.0,1.0,1.0*30
$GPRMC,214743.487,A,4531.401,N,12240.746,W,038.9,356.2,261118,000.0,W*6F
$GPGGA,214744.487,4531.412,N,12240.746,W,1,12,1.0,0.0,M,0.0,M,,*73
$GPGSA,A,3,01,02,03,04,05,06,07,08,09,10,11,12,1.0,1.0,1.0*30
$GPRMC,214744.487,A,4531.412,N,12240.746,W,038.9,356.2,261118,000.0,W*6A
$GPGGA,214745.487,4531.422,N,12240.747,W,1,12,1.0,0.0,M,0.0,M,,*70
$GPGSA,A,3,01,02,03,04,05,06,07,08,09,10,11,12,1.0,1.0,1.0*30
$GPRMC,214745.487,A,4531.422,N,12240.747,W,038.9,269.2,261118,000.0,W*64
$GPGGA,214746.487,4531.422,N,12240.762,W,1,12,1.0,0.0,M,0.0,M,,*74
$GPGSA,A,3,01,02,03,04,05,06,07,08,09,10,11,12,1.0,1.0,1.0*30
$GPRMC,214746.487,A,4531.422,N,12240.762,W,038.9,269.2,261118,000.0,W*60
$GPGGA,214747.487,4531.422,N,12240.778,W,1,12,1.0,0.0,M,0.0,M,,*7E
$GPGSA,A,3,01,02,03,04,05,06,07,08,09,10,11,12,1.0,1.0,1.0*30
$GPRMC,214747.487,A,4531.422,N,12240.778,W,038.9,269.2,261118,000.0,W*6A
$GPGGA,214748.487,4531.422,N,12240.793,W,1,12,1.0,0.0,M,0.0,M,,*74
$GPGSA,A,3,01,02,03,04,05,06,07,08,09,10,11,12,1.0,1.0,1.0*30
$GPRMC,214748.487,A,4531.422,N,12240.793,W,038.9,269.2,261118,000.0,W*60
$GPGGA,214749.487,4531.422,N,12240.809,W,1,12,1.0,0.0,M,0.0,M,,*79
$GPGSA,A,3,01,02,03,04,05,06,07,08,09,10,11,12,1.0,1.0,1.0*30
$GPRMC,214749.487,A,4531.422,N,12240.809,W,038.9,269.2,261118,000.0,W*6D
$GPGGA,214750.487,4531.421,N,12240.824,W,1,12,1.0,0.0,M,0.0,M,,*7D
$GPGSA,A,3,01,02,03,04,05,06,07,08,09,10,11,12,1.0,1.0,1.0*30
$GPRMC,214750.487,A,4531.421,N,12240.824,W,038.9,269.2,261118,000.0,W*69
$GPGGA,214751.487,4531.421,N,12240.839,W,1,12,1.0,0.0,M,0.0,M,,*70
$GPGSA,A,3,01,02,03,04,05,06,07,08,09,10,11,12,1.0,1.0,1.0*30
$GPRMC,214751.487,A,4531.421,N,12240.839,W,038.9,269.2,261118,000.0,W*64
$GPGGA,214752.487,4531.421,N,12240.855,W,1,12,1.0,0.0,M,0.0,M,,*79
$GPGSA,A,3,01,02,03,04,05,06,07,08,09,10,11,12,1.0,1.0,1.0*30
$GPRMC,214752.487,A,4531.421,N,12240.855,W,038.9,269.2,261118,000.0,W*6D
$GPGGA,214753.487,4531.421,N,12240.870,W,1,12,1.0,0.0,M,0.0,M,,*7F
$GPGSA,A,3,01,02,03,04,05,06,07,08,09,10,11,12,1.0,1.0,1.0*30
$GPRMC,214753.487,A,4531.421,N,12240.870,W,038.9,358.5,261118,000.0,W*6F
$GPGGA,214754.487,4531.432,N,12240.871,W,1,12,1.0,0.0,M,0.0,M,,*7B
$GPGSA,A,3,01,02,03,04,05,06,07,08,09,10,11,12,1.0,1.0,1.0*30
$GPRMC,214754.487,A,4531.432,N,12240.871,W,038.9,358.5,261118,000.0,W*6B
$GPGGA,214755.487,4531.442,N,12240.871,W,1,12,1.0,0.0,M,0.0,M,,*7D
$GPGSA,A,3,01,02,03,04,05,06,07,08,09,10,11,12,1.0,1.0,1.0*30
$GPRMC,214755.487,A,4531.442,N,12240.871,W,038.9,358.5,261118,000.0,W*6D
$GPGGA,214756.487,4531.453,N,12240.871,W,1,12,1.0,0.0,M,0.0,M,,*7E
$GPGSA,A,3,01,02,03,04,05,06,07,08,09,10,11,12,1.0,1.0,1.0*30
$GPRMC,214756.487,A,4531.453,N,12240.871,W,038.9,358.5,261118,000.0,W*6E
$GPGGA,214757.487,4531.464,N,12240.871,W,1,12,1.0,0.0,M,0.0,M,,*7B
$GPGSA,A,3,01,02,03,04,05,06,07,08,09,10,11,12,1.0,1.0,1.0*30
$GPRMC,214757.487,A,4531.464,N,12240.871,W,038.9,358.5,261118,000.0,W*6B
$GPGGA,214758.487,4531.475,N,12240.872,W,1,12,1.0,0.0,M,0.0,M,,*77
$GPGSA,A,3,01,02,03,04,05,06,07,08,09,10,11,12,1.0,1.0,1.0*30
$GPRMC,214758.487,A,4531.475,N,12240.872,W,038.9,358.5,261118,000.0,W*67
$GPGGA,214759.487,4531.486,N,12240.872,W,1,12,1.0,0.0,M,0.0,M,,*7A
$GPGSA,A,3,01,02,03,04,05,06,07,08,09,10,11,12,1.0,1.0,1.0*30
$GPRMC,214759.487,A,4531.486,N,12240.872,W,038.9,358.5,261118,000.0,W*6A
$GPGGA,214800.487,4531.496,N,12240.872,W,1,12,1.0,0.0,M,0.0,M,,*78
$GPGSA,A,3,01,02,03,04,05,06,07,08,09,10,11,12,1.0,1.0,1.0*30
$GPRMC,214800.487,A,4531.496,N,12240.872,W,038.9,358.5,261118,000.0,W*68
$GPGGA,214801.487,4531.507,N,12240.872,W,1,12,1.0,0.0,M,0.0,M,,*70
$GPGSA,A,3,01,02,03,04,05,06,07,08,09,10,11,12,1.0,1.0,1.0*30
$GPRMC,214801.487,A,4531.507,N,12240.872,W,038.9,358.5,261118,000.0,W*60
$GPGGA,214802.487,4531.518,N,12240.873,W,1,12,1.0,0.0,M,0.0,M,,*7C
$GPGSA,A,3,01,02,03,04,05,06,07,08,09,10,11,12,1.0,1.0,1.0*30
$GPRMC,214802.487,A,4531.518,N,12240.873,W,038.9,358.5,261118,000.0,W*6C
$GPGGA,214803.487,4531.529,N,12240.873,W,1,12,1.0,0.0,M,0.0,M,,*7F
$GPGSA,A,3,01,02,03,04,05,06,07,08,09,10,11,12,1.0,1.0,1.0*30
$GPRMC,214803.487,A,4531.529,N,12240.873,W,038.9,358.5,261118,000.0,W*6F
$GPGGA,214804.487,4531.540,N,12240.873,W,1,12,1.0,0.0,M,0.0,M,,*77
$GPGSA,A,3,01,02,03,04,05,06,07,08,09,10,11,12,1.0,1.0,1.0*30
$GPRMC,214804.487,A,4531.540,N,12240.873,W,038.9,358.5,261118,000.0,W*67
$GPGGA,214805.487,4531.550,N,12240.874,W,1,12,1.0,0.0,M,0.0,M,,*70
$GPGSA,A,3,01,02,03,04,05,06,07,08,09,10,11,12,1.0,1.0,1.0*30
$GPRMC,214805.487,A,4531.550,N,12240.874,W,038.9,358.5,261118,000.0,W*60
$GPGGA,214806.487,4531.561,N,12240.874,W,1,12,1.0,0.0,M,0.0,M,,*71
$GPGSA,A,3,01,02,03,04,05,06,07,08,09,10,11,12,1.0,1.0,1.0*30
$GPRMC,214806.487,A,4531.561,N,12240.874,W,038.9,358.5,261118,000.0,W*61
$GPGGA,214807.487,4531.572,N,12240.874,W,1,12,1.0,0.0,M,0.0,M,,*72
$GPGSA,A,3,01,02,03,04,05,06,07,08,09,10,11,12,1.0,1.0,1.0*30
$GPRMC,214807.487,A,4531.572,N,12240.874,W,038.9,358.5,261118,000.0,W*62
$GPGGA,214808.487,4531.583,N,12240.874,W,1,12,1.0,0.0,M,0.0,M,,*73
$GPGSA,A,3,01,02,03,04,05,06,07,08,09,10,11,12,1.0,1.0,1.0*30
$GPRMC,214808.487,A,4531.583,N,12240.874,W,038.9,358.5,261118,000.0,W*63
$GPGGA,214809.487,4531.594,N,12240.875,W,1,12,1.0,0.0,M,0.0,M,,*75
$GPGSA,A,3,01,02,03,04,05,06,07,08,09,10,11,12,1.0,1.0,1.0*30
$GPRMC,214809.487,A,4531.594,N,12240.875,W,038.9,268.7,261118,000.0,W*65
$GPGGA,214810.487,4531.593,N,12240.890,W,1,12,1.0,0.0,M,0.0,M,,*71
$GPGSA,A,3,01,02,03,04,05,06,07,08,09,10,11,12,1.0,1.0,1.0*30
$GPRMC,214810.487,A,4531.593,N,12240.890,W,038.9,268.7,261118,000.0,W*61
$GPGGA,214811.487,4531.593,N,12240.906,W,1,12,1.0,0.0,M,0.0,M,,*7E
$GPGSA,A,3,01,02,03,04,05,06,07,08,09,10,11,12,1.0,1.0,1.0*30
$GPRMC,214811.487,A,4531.593,N,12240.906,W,038.9,268.7,261118,000.0,W*6E
$GPGGA,214812.487,4531.592,N,12240.921,W,1,12,1.0,0.0,M,0.0,M,,*79
$GPGSA,A,3,01,02,03,04,05,06,07,08,09,10,11,12,1.0,1.0,1.0*30
$GPRMC,214812.487,A,4531.592,N,12240.921,W,038.9,268.7,261118,000.0,W*69
$GPGGA,214813.487,4531.592,N,12240.936,W,1,12,1.0,0.0,M,0.0,M,,*7E
$GPGSA,A,3,01,02,03,04,05,06,07,08,09,10,11,12,1.0,1.0,1.0*30
$GPRMC,214813.487,A,4531.592,N,12240.936,W,038.9,268.7,261118,000.0,W*6E
$GPGGA,214814.487,4531.592,N,12240.952,W,1,12,1.0,0.0,M,0.0,M,,*7B
$GPGSA,A,3,01,02,03,04,05,06,07,08,09,10,11,12,1.0,1.0,1.0*30
$GPRMC,214814.487,A,4531.592,N,12240.952,W,038.9,268.7,261118,000.0,W*6B
$GPGGA,214815.487,4531.591,N,12240.967,W,1,12,1.0,0.0,M,0.0,M,,*7F
$GPGSA,A,3,01,02,03,04,05,06,07,08,09,10,11,12,1.0,1.0,1.0*30
$GPRMC,214815.487,A,4531.591,N,12240.967,W,038.9,268.7,261118,000.0,W*6F
$GPGGA,214816.487,4531.591,N,12240.982,W,1,12,1.0,0.0,M,0.0,M,,*77
$GPGSA,A,3,01,02,03,04,05,06,07,08,09,10,11,12,1.0,1.0,1.0*30
$GPRMC,214816.487,A,4531.591,N,12240.982,W,038.9,268.7,261118,000.0,W*67
$GPGGA,214817.487,4531.591,N,12240.998,W,1,12,1.0,0.0,M,0.0,M,,*7D
$GPGSA,A,3,01,02,03,04,05,06,07,08,09,10,11,12,1.0,1.0,1.0*30
$GPRMC,214817.487,A,4531.591,N,12240.998,W,038.9,268.7,261118,000.0,W*6D
$GPGGA,214818.487,4531.590,N,12241.013,W,1,12,1.0,0.0,M,0.0,M,,*78
$GPGSA,A,3,01,02,03,04,05,06,07,08,09,10,11,12,1.0,1.0,1.0*30
$GPRMC,214818.487,A,4531.590,N,12241.013,W,038.9,268.7,261118,000.0,W*68
$GPGGA,214819.487,4531.590,N,12241.029,W,1,12,1.0,0.0,M,0.0,M,,*70
$GPGSA,A,3,01,02,03,04,05,06,07,08,09,10,11,12,1.0,1.0,1.0*30
$GPRMC,214819.487,A,4531.590,N,12241.029,W,038.9,268.7,261118,000.0,W*60
$GPGGA,214820.487,4531.590,N,12241.044,W,1,12,1.0,0.0,M,0.0,M,,*71
$GPGSA,A,3,01,02,03,04,05,06,07,08,09,10,11,12,1.0,1.0,1.0*30
$GPRMC,214820.487,A,4531.590,N,12241.044,W,038.9,268.7,261118,000.0,W*61
$GPGGA,214821.487,4531.589,N,12241.059,W,1,12,1.0,0.0,M,0.0,M,,*74
$GPGSA,A,3,01,02,03,04,05,06,07,08,09,10,11,12,1.0,1.0,1.0*30
$GPRMC,214821.487,A,4531.589,N,12241.059,W,038.9,268.7,261118,000.0,W*64
$GPGGA,214822.487,4531.589,N,12241.075,W,1,12,1.0,0.0,M,0.0,M,,*79
$GPGSA,A,3,01,02,03,04,05,06,07,08,09,10,11,12,1.0,1.0,1.0*30
$GPRMC,214822.487,A,4531.589,N,12241.075,W,038.9,268.7,261118,000.0,W*69
$GPGGA,214823.487,4531.588,N,12241.090,W,1,12,1.0,0.0,M,0.0,M,,*72
$GPGSA,A,3,01,02,03,04,05,06,07,08,09,10,11,12,1.0,1.0,1.0*30
$GPRMC,214823.487,A,4531.588,N,12241.090,W,038.9,268.7,261118,000.0,W*62
$GPGGA,214824.487,4531.588,N,12241.106,W,1,12,1.0,0.0,M,0.0,M,,*7B
$GPGSA,A,3,01,02,03,04,05,06,07,08,09,10,11,12,1.0,1.0,1.0*30
$GPRMC,214824.487,A,4531.588,N,12241.106,W,038.9,268.7,261118,000.0,W*6B
$GPGGA,214825.487,4531.588,N,12241.121,W,1,12,1.0,0.0,M,0.0,M,,*7F
$GPGSA,A,3,01,02,03,04,05,06,07,08,09,10,11,12,1.0,1.0,1.0*30
$GPRMC,214825.487,A,4531.588,N,12241.121,W,038.9,176.7,261118,000.0,W*63
$GPGGA,214826.487,4531.577,N,12241.120,W,1,12,1.0,0.0,M,0.0,M,,*7D
$GPGSA,A,3,01,02,03,04,05,06,07,08,09,10,11,12,1.0,1.0,1.0*30
$GPRMC,214826.487,A,4531.577,N,12241.120,W,038.9,176.7,261118,000.0,W*61
$GPGGA,214827.487,4531.566,N,12241.120,W,1,12,1.0,0.0,M,0.0,M,,*7C
$GPGSA,A,3,01,02,03,04,05,06,07,08,09,10,11,12,1.0,1.0,1.0*30
$GPRMC,214827.487,A,4531.566,N,12241.120,W,038.9,176.7,261118,000.0,W*60
$GPGGA,214828.487,4531.555,N,12241.119,W,1,12,1.0,0.0,M,0.0,M,,*79
$GPGSA,A,3,01,02,03,04,05,06,07,08,09,10,11,12,1.0,1.0,1.0*30
$GPRMC,214828.487,A,4531.555,N,12241.119,W,038.9,176.7,261118,000.0,W*65
$GPGGA,214829.487,4531.545,N,12241.119,W,1,12,1.0,0.0,M,0.0,M,,*79
$GPGSA,A,3,01,02,03,04,05,06,07,08,09,10,11,12,1.0,1.0,1.0*30
$GPRMC,214829.487,A,4531.545,N,12241.119,W,038.9,176.7,261118,000.0,W*65
$GPGGA,214830.487,4531.534,N,12241.118,W,1,12,1.0,0.0,M,0.0,M,,*76
$GPGSA,A,3,01,02,03,04,05,06,07,08,09,10,11,12,1.0,1.0,1.0*30
$GPRMC,214830.487,A,4531.534,N,12241.118,W,038.9,176.7,261118,000.0,W*6A
$GPGGA,214831.487,4531.523,N,12241.117,W,1,12,1.0,0.0,M,0.0,M,,*7E
$GPGSA,A,3,01,02,03,04,05,06,07,08,09,10,11,12,1.0,1.0,1.0*30
$GPRMC,214831.487,A,4531.523,N,12241.117,W,038.9,176.7,261118,000.0,W*62
$GPGGA,214832.487,4531.512,N,12241.117,W,1,12,1.0,0.0,M,0.0,M,,*7F
$GPGSA,A,3,01,02,03,04,05,06,07,08,09,10,11,12,1.0,1.0,1.0*30
$GPRMC,214832.487,A,4531.512,N,12241.117,W,038.9,176.7,261118,000.0,W*63
