$GPGGA,224237.477,4530.904,N,12240.848,W,1,12,1.0,0.0,M,0.0,M,,*74
$GPGSA,A,3,01,02,03,04,05,06,07,08,09,10,11,12,1.0,1.0,1.0*30
$GPRMC,224237.477,A,4530.904,N,12240.848,W,038.9,027.8,041218,000.0,W*61
$GPGGA,224238.477,4530.915,N,12240.843,W,1,12,1.0,0.0,M,0.0,M,,*70
$GPGSA,A,3,01,02,03,04,05,06,07,08,09,10,11,12,1.0,1.0,1.0*30
$GPRMC,224238.477,A,4530.915,N,12240.843,W,038.9,027.8,041218,000.0,W*65
$GPGGA,224239.477,4530.925,N,12240.837,W,1,12,1.0,0.0,M,0.0,M,,*71
$GPGSA,A,3,01,02,03,04,05,06,07,08,09,10,11,12,1.0,1.0,1.0*30
$GPRMC,224239.477,A,4530.925,N,12240.837,W,038.9,027.8,041218,000.0,W*64
$GPGGA,224240.477,4530.935,N,12240.832,W,1,12,1.0,0.0,M,0.0,M,,*7B
$GPGSA,A,3,01,02,03,04,05,06,07,08,09,10,11,12,1.0,1.0,1.0*30
$GPRMC,224240.477,A,4530.935,N,12240.832,W,038.9,027.8,041218,000.0,W*6E
$GPGGA,224241.477,4530.945,N,12240.827,W,1,12,1.0,0.0,M,0.0,M,,*79
$GPGSA,A,3,01,02,03,04,05,06,07,08,09,10,11,12,1.0,1.0,1.0*30
$GPRMC,224241.477,A,4530.945,N,12240.827,W,038.9,027.8,041218,000.0,W*6C
$GPGGA,224242.477,4530.955,N,12240.821,W,1,12,1.0,0.0,M,0.0,M,,*7D
$GPGSA,A,3,01,02,03,04,05,06,07,08,09,10,11,12,1.0,1.0,1.0*30
$GPRMC,224242.477,A,4530.955,N,12240.821,W,038.9,027.8,041218,000.0,W*68
$GPGGA,224243.477,4530.965,N,12240.816,W,1,12,1.0,0.0,M,0.0,M,,*7B
$GPGSA,A,3,01,02,03,04,05,06,07,08,09,10,11,12,1.0,1.0,1.0*30
$GPRMC,224243.477,A,4530.965,N,12240.816,W,038.9,027.8,041218,000.0,W*6E
$GPGGA,224244.477,4530.975,N,12240.811,W,1,12,1.0,0.0,M,0.0,M,,*7A
$GPGSA,A,3,01,02,03,04,05,06,07,08,09,10,11,12,1.0,1.0,1.0*30
$GPRMC,224244.477,A,4530.975,N,12240.811,W,038.9,027.8,041218,000.0,W*6F
$GPGGA,224245.477,4530.985,N,12240.805,W,1,12,1.0,0.0,M,0.0,M,,*71
$GPGSA,A,3,01,02,03,04,05,06,07,08,09,10,11,12,1.0,1.0,1.0*30
$GPRMC,224245.477,A,4530.985,N,12240.805,W,038.9,285.6,041218,000.0,W*60
$GPGGA,224246.477,4530.989,N,12240.820,W,1,12,1.0,0.0,M,0.0,M,,*79
$GPGSA,A,3,01,02,03,04,05,06,07,08,09,10,11,12,1.0,1.0,1.0*30
$GPRMC,224246.477,A,4530.989,N,12240.820,W,038.9,285.6,041218,000.0,W*68
$GPGGA,224247.477,4530.993,N,12240.834,W,1,12,1.0,0.0,M,0.0,M,,*76
$GPGSA,A,3,01,02,03,04,05,06,07,08,09,10,11,12,1.0,1.0,1.0*30
$GPRMC,224247.477,A,4530.993,N,12240.834,W,038.9,285.6,041218,000.0,W*67
$GPGGA,224248.477,4530.997,N,12240.848,W,1,12,1.0,0.0,M,0.0,M,,*76
$GPGSA,A,3,01,02,03,04,05,06,07,08,09,10,11,12,1.0,1.0,1.0*30
$GPRMC,224248.477,A,4530.997,N,12240.848,W,038.9,285.6,041218,000.0,W*67
$GPGGA,224249.477,4531.001,N,12240.862,W,1,12,1.0,0.0,M,0.0,M,,*78
$GPGSA,A,3,01,02,03,04,05,06,07,08,09,10,11,12,1.0,1.0,1.0*30
$GPRMC,224249.477,A,4531.001,N,12240.862,W,038.9,027.7,041218,000.0,W*62
$GPGGA,224250.477,4531.011,N,12240.857,W,1,12,1.0,0.0,M,0.0,M,,*77
$GPGSA,A,3,01,02,03,04,05,06,07,08,09,10,11,12,1.0,1.0,1.0*30
$GPRMC,224250.477,A,4531.011,N,12240.857,W,038.9,027.7,041218,000.0,W*6D
$GPGGA,224251.477,4531.022,N,12240.852,W,1,12,1.0,0.0,M,0.0,M,,*73
$GPGSA,A,3,01,02,03,04,05,06,07,08,09,10,11,12,1.0,1.0,1.0*30
$GPRMC,224251.477,A,4531.022,N,12240.852,W,038.9,027.7,041218,000.0,W*69
$GPGGA,224252.477,4531.032,N,12240.846,W,1,12,1.0,0.0,M,0.0,M,,*74
$GPGSA,A,3,01,02,03,04,05,06,07,08,09,10,11,12,1.0,1.0,1.0*30
$GPRMC,224252.477,A,4531.032,N,12240.846,W,038.9,029.4,041218,000.0,W*63
$GPGGA,224253.477,4531.042,N,12240.841,W,1,12,1.0,0.0,M,0.0,M,,*75
$GPGSA,A,3,01,02,03,04,05,06,07,08,09,10,11,12,1.0,1.0,1.0*30
$GPRMC,224253.477,A,4531.042,N,12240.841,W,038.9,029.4,041218,000.0,W*62
$GPGGA,224254.477,4531.052,N,12240.835,W,1,12,1.0,0.0,M,0.0,M,,*70
$GPGSA,A,3,01,02,03,04,05,06,07,08,09,10,11,12,1.0,1.0,1.0*30
$GPRMC,224254.477,A,4531.052,N,12240.835,W,038.9,029.4,041218,000.0,W*67
$GPGGA,224255.477,4531.062,N,12240.829,W,1,12,1.0,0.0,M,0.0,M,,*7F
$GPGSA,A,3,01,02,03,04,05,06,07,08,09,10,11,12,1.0,1.0,1.0*30
$GPRMC,224255.477,A,4531.062,N,12240.829,W,038.9,029.4,041218,000.0,W*68
$GPGGA,224256.477,4531.072,N,12240.824,W,1,12,1.0,0.0,M,0.0,M,,*70
$GPGSA,A,3,01,02,03,04,05,06,07,08,09,10,11,12,1.0,1.0,1.0*30
$GPRMC,224256.477,A,4531.072,N,12240.824,W,038.9,029.4,041218,000.0,W*67
$GPGGA,224257.477,4531.082,N,12240.818,W,1,12,1.0,0.0,M,0.0,M,,*71
$GPGSA,A,3,01,02,03,04,05,06,07,08,09,10,11,12,1.0,1.0,1.0*30
$GPRMC,224257.477,A,4531.082,N,12240.818,W,038.9,106.0,041218,000.0,W*6E
$GPGGA,224258.477,4531.078,N,12240.804,W,1,12,1.0,0.0,M,0.0,M,,*76
$GPGSA,A,3,01,02,03,04,05,06,07,08,09,10,11,12,1.0,1.0,1.0*30
$GPRMC,224258.477,A,4531.078,N,12240.804,W,038.9,106.0,041218,000.0,W*69
$GPGGA,224259.477,4531.074,N,12240.790,W,1,12,1.0,0.0,M,0.0,M,,*79
$GPGSA,A,3,01,02,03,04,05,06,07,08,09,10,11,12,1.0,1.0,1.0*30
$GPRMC,224259.477,A,4531.074,N,12240.790,W,038.9,106.0,041218,000.0,W*66
$GPGGA,224300.477,4531.070,N,12240.775,W,1,12,1.0,0.0,M,0.0,M,,*7B
$GPGSA,A,3,01,02,03,04,05,06,07,08,09,10,11,12,1.0,1.0,1.0*30
$GPRMC,224300.477,A,4531.070,N,12240.775,W,038.9,106.0,041218,000.0,W*64
$GPGGA,224301.477,4531.066,N,12240.761,W,1,12,1.0,0.0,M,0.0,M,,*78
$GPGSA,A,3,01,02,03,04,05,06,07,08,09,10,11,12,1.0,1.0,1.0*30
$GPRMC,224301.477,A,4531.066,N,12240.761,W,038.9,106.0,041218,000.0,W*67
$GPGGA,224302.477,4531.062,N,12240.747,W,1,12,1.0,0.0,M,0.0,M,,*7B
$GPGSA,A,3,01,02,03,04,05,06,07,08,09,10,11,12,1.0,1.0,1.0*30
$GPRMC,224302.477,A,4531.062,N,12240.747,W,038.9,106.0,041218,000.0,W*64
$GPGGA,224303.477,4531.057,N,12240.733,W,1,12,1.0,0.0,M,0.0,M,,*7F
$GPGSA,A,3,01,02,03,04,05,06,07,08,09,10,11,12,1.0,1.0,1.0*30
$GPRMC,224303.477,A,4531.057,N,12240.733,W,038.9,106.0,041218,000.0,W*60
$GPGGA,224304.477,4531.053,N,12240.718,W,1,12,1.0,0.0,M,0.0,M,,*75
$GPGSA,A,3,01,02,03,04,05,06,07,08,09,10,11,12,1.0,1.0,1.0*30
$GPRMC,224304.477,A,4531.053,N,12240.718,W,038.9,106.0,041218,000.0,W*6A
$GPGGA,224305.477,4531.049,N,12240.704,W,1,12,1.0,0.0,M,0.0,M,,*72
$GPGSA,A,3,01,02,03,04,05,06,07,08,09,10,11,12,1.0,1.0,1.0*30
$GPRMC,224305.477,A,4531.049,N,12240.704,W,038.9,105.0,041218,000.0,W*6E
$GPGGA,224306.477,4531.045,N,12240.690,W,1,12,1.0,0.0,M,0.0,M,,*71
$GPGSA,A,3,01,02,03,04,05,06,07,08,09,10,11,12,1.0,1.0,1.0*30
$GPRMC,224306.477,A,4531.045,N,12240.690,W,038.9,105.0,041218,000.0,W*6D
$GPGGA,224307.477,4531.042,N,12240.675,W,1,12,1.0,0.0,M,0.0,M,,*7C
$GPGSA,A,3,01,02,03,04,05,06,07,08,09,10,11,12,1.0,1.0,1.0*30
$GPRMC,224307.477,A,4531.042,N,12240.675,W,038.9,105.0,041218,000.0,W*60
$GPGGA,224308.477,4531.038,N,12240.661,W,1,12,1.0,0.0,M,0.0,M,,*7B
$GPGSA,A,3,01,02,03,04,05,06,07,08,09,10,11,12,1.0,1.0,1.0*30
$GPRMC,224308.477,A,4531.038,N,12240.661,W,038.9,105.0,041218,000.0,W*67
$GPGGA,224309.477,4531.034,N,12240.646,W,1,12,1.0,0.0,M,0.0,M,,*73
$GPGSA,A,3,01,02,03,04,05,06,07,08,09,10,11,12,1.0,1.0,1.0*30
$GPRMC,224309.477,A,4531.034,N,12240.646,W,038.9,104.9,041218,000.0,W*67
$GPGGA,224310.477,4531.030,N,12240.632,W,1,12,1.0,0.0,M,0.0,M,,*7C
$GPGSA,A,3,01,02,03,04,05,06,07,08,09,10,11,12,1.0,1.0,1.0*30
$GPRMC,224310.477,A,4531.030,N,12240.632,W,038.9,211.0,041218,000.0,W*66
$GPGGA,224311.477,4531.020,N,12240.638,W,1,12,1.0,0.0,M,0.0,M,,*76
$GPGSA,A,3,01,02,03,04,05,06,07,08,09,10,11,12,1.0,1.0,1.0*30
$GPRMC,224311.477,A,4531.020,N,12240.638,W,038.9,211.0,041218,000.0,W*6C
$GPGGA,224312.477,4531.010,N,12240.644,W,1,12,1.0,0.0,M,0.0,M,,*7D
$GPGSA,A,3,01,02,03,04,05,06,07,08,09,10,11,12,1.0,1.0,1.0*30
$GPRMC,224312.477,A,4531.010,N,12240.644,W,038.9,211.0,041218,000.0,W*67
$GPGGA,224313.477,4531.000,N,12240.650,W,1,12,1.0,0.0,M,0.0,M,,*78
$GPGSA,A,3,01,02,03,04,05,06,07,08,09,10,11,12,1.0,1.0,1.0*30
$GPRMC,224313.477,A,4531.000,N,12240.650,W,038.9,211.0,041218,000.0,W*62
$GPGGA,224314.477,4530.990,N,12240.656,W,1,12,1.0,0.0,M,0.0,M,,*78
$GPGSA,A,3,01,02,03,04,05,06,07,08,09,10,11,12,1.0,1.0,1.0*30
$GPRMC,224314.477,A,4530.990,N,12240.656,W,038.9,211.0,041218,000.0,W*62
$GPGGA,224315.477,4530.980,N,12240.662,W,1,12,1.0,0.0,M,0.0,M,,*7F
$GPGSA,A,3,01,02,03,04,05,06,07,08,09,10,11,12,1.0,1.0,1.0*30
$GPRMC,224315.477,A,4530.980,N,12240.662,W,038.9,211.0,041218,000.0,W*65
$GPGGA,224316.477,4530.970,N,12240.668,W,1,12,1.0,0.0,M,0.0,M,,*79
$GPGSA,A,3,01,02,03,04,05,06,07,08,09,10,11,12,1.0,1.0,1.0*30
$GPRMC,224316.477,A,4530.970,N,12240.668,W,038.9,211.0,041218,000.0,W*63
$GPGGA,224317.477,4530.960,N,12240.674,W,1,12,1.0,0.0,M,0.0,M,,*74
$GPGSA,A,3,01,02,03,04,05,06,07,08,09,10,11,12,1.0,1.0,1.0*30
$GPRMC,224317.477,A,4530.960,N,12240.674,W,038.9,211.0,041218,000.0,W*6E
$GPGGA,224318.477,4530.951,N,12240.680,W,1,12,1.0,0.0,M,0.0,M,,*72
$GPGSA,A,3,01,02,03,04,05,06,07,08,09,10,11,12,1.0,1.0,1.0*30
$GPRMC,224318.477,A,4530.951,N,12240.680,W,038.9,286.5,041218,000.0,W*63
$GPGGA,224319.477,4530.955,N,12240.694,W,1,12,1.0,0.0,M,0.0,M,,*72
$GPGSA,A,3,01,02,03,04,05,06,07,08,09,10,11,12,1.0,1.0,1.0*30
$GPRMC,224319.477,A,4530.955,N,12240.694,W,038.9,286.5,041218,000.0,W*63
$GPGGA,224320.477,4530.959,N,12240.708,W,1,12,1.0,0.0,M,0.0,M,,*70
$GPGSA,A,3,01,02,03,04,05,06,07,08,09,10,11,12,1.0,1.0,1.0*30
$GPRMC,224320.477,A,4530.959,N,12240.708,W,038.9,286.5,041218,000.0,W*61
$GPGGA,224321.477,4530.963,N,12240.723,W,1,12,1.0,0.0,M,0.0,M,,*71
$GPGSA,A,3,01,02,03,04,05,06,07,08,09,10,11,12,1.0,1.0,1.0*30
$GPRMC,224321.477,A,4530.963,N,12240.723,W,038.9,286.5,041218,000.0,W*60
$GPGGA,224322.477,4530.967,N,12240.737,W,1,12,1.0,0.0,M,0.0,M,,*73
$GPGSA,A,3,01,02,03,04,05,06,07,08,09,10,11,12,1.0,1.0,1.0*30
$GPRMC,224322.477,A,4530.967,N,12240.737,W,038.9,209.8,041218,000.0,W*68
$GPGGA,224323.477,4530.957,N,12240.743,W,1,12,1.0,0.0,M,0.0,M,,*72
$GPGSA,A,3,01,02,03,04,05,06,07,08,09,10,11,12,1.0,1.0,1.0*30
$GPRMC,224323.477,A,4530.957,N,12240.743,W,038.9,209.8,041218,000.0,W*69
$GPGGA,224324.477,4530.947,N,12240.748,W,1,12,1.0,0.0,M,0.0,M,,*7F
$GPGSA,A,3,01,02,03,04,05,06,07,08,09,10,11,12,1.0,1.0,1.0*30
$GPRMC,224324.477,A,4530.947,N,12240.748,W,038.9,209.8,041218,000.0,W*64
$GPGGA,224325.477,4530.937,N,12240.754,W,1,12,1.0,0.0,M,0.0,M,,*74
$GPGSA,A,3,01,02,03,04,05,06,07,08,09,10,11,12,1.0,1.0,1.0*30
$GPRMC,224325.477,A,4530.937,N,12240.754,W,038.9,209.8,041218,000.0,W*6F
$GPGGA,224326.477,4530.927,N,12240.760,W,1,12,1.0,0.0,M,0.0,M,,*71
$GPGSA,A,3,01,02,03,04,05,06,07,08,09,10,11,12,1.0,1.0,1.0*30
$GPRMC,224326.477,A,4530.927,N,12240.760,W,038.9,209.8,041218,000.0,W*6A
$GPGGA,224327.477,4530.917,N,12240.766,W,1,12,1.0,0.0,M,0.0,M,,*75
$GPGSA,A,3,01,02,03,04,05,06,07,08,09,10,11,12,1.0,1.0,1.0*30
$GPRMC,224327.477,A,4530.917,N,12240.766,W,038.9,209.8,041218,000.0,W*6E
$GPGGA,224328.477,4530.907,N,12240.771,W,1,12,1.0,0.0,M,0.0,M,,*7D
$GPGSA,A,3,01,02,03,04,05,06,07,08,09,10,11,12,1.0,1.0,1.0*30
$GPRMC,224328.477,A,4530.907,N,12240.771,W,038.9,209.8,041218,000.0,W*66
$GPGGA,224329.477,4530.897,N,12240.777,W,1,12,1.0,0.0,M,0.0,M,,*72
$GPGSA,A,3,01,02,03,04,05,06,07,08,09,10,11,12,1.0,1.0,1.0*30
$GPRMC,224329.477,A,4530.897,N,12240.777,W,038.9,209.8,041218,000.0,W*69
$GPGGA,224330.477,4530.887,N,12240.783,W,1,12,1.0,0.0,M,0.0,M,,*70
$GPGSA,A,3,01,02,03,04,05,06,07,08,09,10,11,12,1.0,1.0,1.0*30
$GPRMC,224330.477,A,4530.887,N,12240.783,W,038.9,105.2,041218,000.0,W*6E
$GPGGA,224331.477,4530.883,N,12240.768,W,1,12,1.0,0.0,M,0.0,M,,*70
$GPGSA,A,3,01,02,03,04,05,06,07,08,09,10,11,12,1.0,1.0,1.0*30
$GPRMC,224331.477,A,4530.883,N,12240.768,W,038.9,105.2,041218,000.0,W*6E
$GPGGA,224332.477,4530.879,N,12240.754,W,1,12,1.0,0.0,M,0.0,M,,*79
$GPGSA,A,3,01,02,03,04,05,06,07,08,09,10,11,12,1.0,1.0,1.0*30
$GPRMC,224332.477,A,4530.879,N,12240.754,W,038.9,105.2,041218,000.0,W*67
$GPGGA,224333.477,4530.876,N,12240.740,W,1,12,1.0,0.0,M,0.0,M,,*72
$GPGSA,A,3,01,02,03,04,05,06,07,08,09,10,11,12,1.0,1.0,1.0*30
$GPRMC,224333.477,A,4530.876,N,12240.740,W,038.9,105.2,041218,000.0,W*6C
$GPGGA,224334.477,4530.872,N,12240.725,W,1,12,1.0,0.0,M,0.0,M,,*72
$GPGSA,A,3,01,02,03,04,05,06,07,08,09,10,11,12,1.0,1.0,1.0*30
$GPRMC,224334.477,A,4530.872,N,12240.725,W,038.9,105.2,041218,000.0,W*6C
$GPGGA,224335.477,4530.868,N,12240.711,W,1,12,1.0,0.0,M,0.0,M,,*7F
$GPGSA,A,3,01,02,03,04,05,06,07,08,09,10,11,12,1.0,1.0,1.0*30
$GPRMC,224335.477,A,4530.868,N,12240.711,W,038.9,105.2,041218,000.0,W*61
$GPGGA,224336.477,4530.864,N,12240.697,W,1,12,1.0,0.0,M,0.0,M,,*7F
$GPGSA,A,3,01,02,03,04,05,06,07,08,09,10,11,12,1.0,1.0,1.0*30
$GPRMC,224336.477,A,4530.864,N,12240.697,W,038.9,105.2,041218,000.0,W*61
$GPGGA,224337.477,4530.860,N,12240.682,W,1,12,1.0,0.0,M,0.0,M,,*7E
$GPGSA,A,3,01,02,03,04,05,06,07,08,09,10,11,12,1.0,1.0,1.0*30
$GPRMC,224337.477,A,4530.860,N,12240.682,W,038.9,105.2,041218,000.0,W*60
$GPGGA,224338.477,4530.856,N,12240.668,W,1,12,1.0,0.0,M,0.0,M,,*70
$GPGSA,A,3,01,02,03,04,05,06,07,08,09,10,11,12,1.0,1.0,1.0*30
$GPRMC,224338.477,A,4530.856,N,12240.668,W,038.9,105.2,041218,000.0,W*6E
$GPGGA,224339.477,4530.852,N,12240.654,W,1,12,1.0,0.0,M,0.0,M,,*7A
$GPGSA,A,3,01,02,03,04,05,06,07,08,09,10,11,12,1.0,1.0,1.0*30
$GPRMC,224339.477,A,4530.852,N,12240.654,W,038.9,105.2,041218,000.0,W*64
$GPGGA,224340.477,4530.848,N,12240.639,W,1,12,1.0,0.0,M,0.0,M,,*74
$GPGSA,A,3,01,02,03,04,05,06,07,08,09,10,11,12,1.0,1.0,1.0*30
$GPRMC,224340.477,A,4530.848,N,12240.639,W,038.9,105.2,041218,000.0,W*6A
$GPGGA,224341.477,4530.844,N,12240.625,W,1,12,1.0,0.0,M,0.0,M,,*74
$GPGSA,A,3,01,02,03,04,05,06,07,08,09,10,11,12,1.0,1.0,1.0*30
$GPRMC,224341.477,A,4530.844,N,12240.625,W,038.9,105.2,041218,000.0,W*6A
$GPGGA,224342.477,4530.841,N,12240.610,W,1,12,1.0,0.0,M,0.0,M,,*74
$GPGSA,A,3,01,02,03,04,05,06,07,08,09,10,11,12,1.0,1.0,1.0*30
$GPRMC,224342.477,A,4530.841,N,12240.610,W,038.9,032.3,041218,000.0,W*6E
$GPGGA,224343.477,4530.850,N,12240.604,W,1,12,1.0,0.0,M,0.0,M,,*70
$GPGSA,A,3,01,02,03,04,05,06,07,08,09,10,11,12,1.0,1.0,1.0*30
$GPRMC,224343.477,A,4530.850,N,12240.604,W,038.9,032.3,041218,000.0,W*6A
$GPGGA,224344.477,4530.860,N,12240.598,W,1,12,1.0,0.0,M,0.0,M,,*72
$GPGSA,A,3,01,02,03,04,05,06,07,08,09,10,11,12,1.0,1.0,1.0*30
$GPRMC,224344.477,A,4530.860,N,12240.598,W,038.9,032.3,041218,000.0,W*68
$GPGGA,224345.477,4530.870,N,12240.592,W,1,12,1.0,0.0,M,0.0,M,,*78
$GPGSA,A,3,01,02,03,04,05,06,07,08,09,10,11,12,1.0,1.0,1.0*30
$GPRMC,224345.477,A,4530.870,N,12240.592,W,038.9,032.3,041218,000.0,W*62
$GPGGA,224346.477,4530.880,N,12240.585,W,1,12,1.0,0.0,M,0.0,M,,*72
$GPGSA,A,3,01,02,03,04,05,06,07,08,09,10,11,12,1.0,1.0,1.0*30
$GPRMC,224346.477,A,4530.880,N,12240.585,W,038.9,032.3,041218,000.0,W*68
$GPGGA,224347.477,4530.890,N,12240.579,W,1,12,1.0,0.0,M,0.0,M,,*71
$GPGSA,A,3,01,02,03,04,05,06,07,08,09,10,11,12,1.0,1.0,1.0*30
$GPRMC,224347.477,A,4530.890,N,12240.579,W,038.9,032.3,041218,000.0,W*6B
$GPGGA,224348.477,4530.900,N,12240.573,W,1,12,1.0,0.0,M,0.0,M,,*7C
$GPGSA,A,3,01,02,03,04,05,06,07,08,09,10,11,12,1.0,1.0,1.0*30
$GPRMC,224348.477,A,4530.900,N,12240.573,W,038.9,032.3,041218,000.0,W*66
$GPGGA,224349.477,4530.910,N,12240.567,W,1,12,1.0,0.0,M,0.0,M,,*79
$GPGSA,A,3,01,02,03,04,05,06,07,08,09,10,11,12,1.0,1.0,1.0*30
$GPRMC,224349.477,A,4530.910,N,12240.567,W,038.9,032.3,041218,000.0,W*63
$GPGGA,224350.477,4530.919,N,12240.560,W,1,12,1.0,0.0,M,0.0,M,,*7F
$GPGSA,A,3,01,02,03,04,05,06,07,08,09,10,11,12,1.0,1.0,1.0*30
$GPRMC,224350.477,A,4530.919,N,12240.560,W,038.9,284.8,041218,000.0,W*61
$GPGGA,224351.477,4530.923,N,12240.575,W,1,12,1.0,0.0,M,0.0,M,,*73
$GPGSA,A,3,01,02,03,04,05,06,07,08,09,10,11,12,1.0,1.0,1.0*30
$GPRMC,224351.477,A,4530.923,N,12240.575,W,038.9,284.8,041218,000.0,W*6D
$GPGGA,224352.477,4530.927,N,12240.589,W,1,12,1.0,0.0,M,0.0,M,,*77
$GPGSA,A,3,01,02,03,04,05,06,07,08,09,10,11,12,1.0,1.0,1.0*30
$GPRMC,224352.477,A,4530.927,N,12240.589,W,038.9,284.8,041218,000.0,W*69
$GPGGA,224353.477,4530.931,N,12240.604,W,1,12,1.0,0.0,M,0.0,M,,*77
$GPGSA,A,3,01,02,03,04,05,06,07,08,09,10,11,12,1.0,1.0,1.0*30
$GPRMC,224353.477,A,4530.931,N,12240.604,W,038.9,284.8,041218,000.0,W*69
$GPGGA,224354.477,4530.935,N,12240.618,W,1,12,1.0,0.0,M,0.0,M,,*79
$GPGSA,A,3,01,02,03,04,05,06,07,08,09,10,11,12,1.0,1.0,1.0*30
$GPRMC,224354.477,A,4530.935,N,12240.618,W,038.9,284.8,041218,000.0,W*67
$GPGGA,224355.477,4530.938,N,12240.632,W,1,12,1.0,0.0,M,0.0,M,,*7D
$GPGSA,A,3,01,02,03,04,05,06,07,08,09,10,11,12,1.0,1.0,1.0*30
$GPRMC,224355.477,A,4530.938,N,12240.632,W,038.9,302.1,041218,000.0,W*65
$GPGGA,224356.477,4530.946,N,12240.644,W,1,12,1.0,0.0,M,0.0,M,,*76
$GPGSA,A,3,01,02,03,04,05,06,07,08,09,10,11,12,1.0,1.0,1.0*30
$GPRMC,224356.477,A,4530.946,N,12240.644,W,038.9,271.2,041218,000.0,W*68
$GPGGA,224357.477,4530.946,N,12240.659,W,1,12,1.0,0.0,M,0.0,M,,*7B
$GPGSA,A,3,01,02,03,04,05,06,07,08,09,10,11,12,1.0,1.0,1.0*30
$GPRMC,224357.477,A,4530.946,N,12240.659,W,038.9,285.0,041218,000.0,W*6C
$GPGGA,224358.477,4530.950,N,12240.674,W,1,12,1.0,0.0,M,0.0,M,,*7C
$GPGSA,A,3,01,02,03,04,05,06,07,08,09,10,11,12,1.0,1.0,1.0*30
$GPRMC,224358.477,A,4530.950,N,12240.674,W,038.9,285.0,041218,000.0,W*6B
$GPGGA,224359.477,4530.954,N,12240.688,W,1,12,1.0,0.0,M,0.0,M,,*7A
$GPGSA,A,3,01,02,03,04,05,06,07,08,09,10,11,12,1.0,1.0,1.0*30
$GPRMC,224359.477,A,4530.954,N,12240.688,W,038.9,285.0,041218,000.0,W*6D
$GPGGA,224400.477,4530.957,N,12240.702,W,1,12,1.0,0.0,M,0.0,M,,*71
$GPGSA,A,3,01,02,03,04,05,06,07,08,09,10,11,12,1.0,1.0,1.0*30
$GPRMC,224400.477,A,4530.957,N,12240.702,W,038.9,285.0,041218,000.0,W*66
$GPGGA,224401.477,4530.961,N,12240.717,W,1,12,1.0,0.0,M,0.0,M,,*71
$GPGSA,A,3,01,02,03,04,05,06,07,08,09,10,11,12,1.0,1.0,1.0*30
$GPRMC,224401.477,A,4530.961,N,12240.717,W,038.9,285.0,041218,000.0,W*66
$GPGGA,224402.477,4530.965,N,12240.731,W,1,12,1.0,0.0,M,0.0,M,,*72
$GPGSA,A,3,01,02,03,04,05,06,07,08,09,10,11,12,1.0,1.0,1.0*30
$GPRMC,224402.477,A,4530.965,N,12240.731,W,038.9,285.0,041218,000.0,W*65
$GPGGA,224403.477,4530.969,N,12240.746,W,1,12,1.0,0.0,M,0.0,M,,*7F
$GPGSA,A,3,01,02,03,04,05,06,07,08,09,10,11,12,1.0,1.0,1.0*30
$GPRMC,224403.477,A,4530.969,N,12240.746,W,038.9,285.0,041218,000.0,W*68
$GPGGA,224404.477,4530.973,N,12240.760,W,1,12,1.0,0.0,M,0.0,M,,*77
$GPGSA,A,3,01,02,03,04,05,06,07,08,09,10,11,12,1.0,1.0,1.0*30
$GPRMC,224404.477,A,4530.973,N,12240.760,W,038.9,285.0,041218,000.0,W*60
$GPGGA,224405.477,4530.977,N,12240.774,W,1,12,1.0,0.0,M,0.0,M,,*77
$GPGSA,A,3,01,02,03,04,05,06,07,08,09,10,11,12,1.0,1.0,1.0*30
$GPRMC,224405.477,A,4530.977,N,12240.774,W,038.9,285.0,041218,000.0,W*60
$GPGGA,224406.477,4530.981,N,12240.789,W,1,12,1.0,0.0,M,0.0,M,,*7F
$GPGSA,A,3,01,02,03,04,05,06,07,08,09,10,11,12,1.0,1.0,1.0*30
$GPRMC,224406.477,A,4530.981,N,12240.789,W,038.9,285.0,041218,000.0,W*68
$GPGGA,224407.477,4530.984,N,12240.803,W,1,12,1.0,0.0,M,0.0,M,,*76
$GPGSA,A,3,01,02,03,04,05,06,07,08,09,10,11,12,1.0,1.0,1.0*30
$GPRMC,224407.477,A,4530.984,N,12240.803,W,038.9,285.0,041218,000.0,W*61
$GPGGA,224408.477,4530.988,N,12240.818,W,1,12,1.0,0.0,M,0.0,M,,*7F
$GPGSA,A,3,01,02,03,04,05,06,07,08,09,10,11,12,1.0,1.0,1.0*30
$GPRMC,224408.477,A,4530.988,N,12240.818,W,038.9,285.0,041218,000.0,W*68
$GPGGA,224409.477,4530.992,N,12240.832,W,1,12,1.0,0.0,M,0.0,M,,*7D
$GPGSA,A,3,01,02,03,04,05,06,07,08,09,10,11,12,1.0,1.0,1.0*30
$GPRMC,224409.477,A,4530.992,N,12240.832,W,038.9,285.0,041218,000.0,W*6A
$GPGGA,224410.477,4530.996,N,12240.846,W,1,12,1.0,0.0,M,0.0,M,,*72
$GPGSA,A,3,01,02,03,04,05,06,07,08,09,10,11,12,1.0,1.0,1.0*30
$GPRMC,224410.477,A,4530.996,N,12240.846,W,038.9,285.0,041218,000.0,W*65
$GPGGA,224411.477,4531.000,N,12240.861,W,1,12,1.0,0.0,M,0.0,M,,*71
$GPGSA,A,3,01,02,03,04,05,06,07,08,09,10,11,12,1.0,1.0,1.0*30
$GPRMC,224411.477,A,4531.000,N,12240.861,W,038.9,285.0,041218,000.0,W*66
$GPGGA,224412.477,4531.004,N,12240.875,W,1,12,1.0,0.0,M,0.0,M,,*73
$GPGSA,A,3,01,02,03,04,05,06,07,08,09,10,11,12,1.0,1.0,1.0*30
$GPRMC,224412.477,A,4531.004,N,12240.875,W,038.9,285.0,041218,000.0,W*64
$GPGGA,224413.477,4531.007,N,12240.890,W,1,12,1.0,0.0,M,0.0,M,,*7A
$GPGSA,A,3,01,02,03,04,05,06,07,08,09,10,11,12,1.0,1.0,1.0*30
$GPRMC,224413.477,A,4531.007,N,12240.890,W,038.9,285.0,041218,000.0,W*6D
$GPGGA,224414.477,4531.011,N,12240.904,W,1,12,1.0,0.0,M,0.0,M,,*76
$GPGSA,A,3,01,02,03,04,05,06,07,08,09,10,11,12,1.0,1.0,1.0*30
$GPRMC,224414.477,A,4531.011,N,12240.904,W,038.9,285.0,041218,000.0,W*61
$GPGGA,224415.477,4531.015,N,12240.918,W,1,12,1.0,0.0,M,0.0,M,,*7E
$GPGSA,A,3,01,02,03,04,05,06,07,08,09,10,11,12,1.0,1.0,1.0*30
$GPRMC,224415.477,A,4531.015,N,12240.918,W,038.9,285.0,041218,000.0,W*69
$GPGGA,224416.477,4531.019,N,12240.933,W,1,12,1.0,0.0,M,0.0,M,,*78
$GPGSA,A,3,01,02,03,04,05,06,07,08,09,10,11,12,1.0,1.0,1.0*30
$GPRMC,224416.477,A,4531.019,N,12240.933,W,038.9,285.0,041218,000.0,W*6F
$GPGGA,224417.477,4531.023,N,12240.947,W,1,12,1.0,0.0,M,0.0,M,,*73
$GPGSA,A,3,01,02,03,04,05,06,07,08,09,10,11,12,1.0,1.0,1.0*30
$GPRMC,224417.477,A,4531.023,N,12240.947,W,038.9,285.0,041218,000.0,W*64
$GPGGA,224418.477,4531.027,N,12240.962,W,1,12,1.0,0.0,M,0.0,M,,*7F
$GPGSA,A,3,01,02,03,04,05,06,07,08,09,10,11,12,1.0,1.0,1.0*30
$GPRMC,224418.477,A,4531.027,N,12240.962,W,038.9,285.0,041218,000.0,W*68
$GPGGA,224419.477,4531.031,N,12240.976,W,1,12,1.0,0.0,M,0.0,M,,*7C
$GPGSA,A,3,01,02,03,04,05,06,07,08,09,10,11,12,1.0,1.0,1.0*30
$GPRMC,224419.477,A,4531.031,N,12240.976,W,038.9,285.0,041218,000.0,W*6B
$GPGGA,224420.477,4531.034,N,12240.990,W,1,12,1.0,0.0,M,0.0,M,,*7B
$GPGSA,A,3,01,02,03,04,05,06,07,08,09,10,11,12,1.0,1.0,1.0*30
$GPRMC,224420.477,A,4531.034,N,12240.990,W,038.9,285.0,041218,000.0,W*6C
$GPGGA,224421.477,4531.038,N,12241.005,W,1,12,1.0,0.0,M,0.0,M,,*72
$GPGSA,A,3,01,02,03,04,05,06,07,08,09,10,11,12,1.0,1.0,1.0*30
$GPRMC,224421.477,A,4531.038,N,12241.005,W,038.9,213.1,041218,000.0,W*6B
$GPGGA,224422.477,4531.028,N,12241.011,W,1,12,1.0,0.0,M,0.0,M,,*75
$GPGSA,A,3,01,02,03,04,05,06,07,08,09,10,11,12,1.0,1.0,1.0*30
$GPRMC,224422.477,A,4531.028,N,12241.011,W,038.9,213.1,041218,000.0,W*6C
$GPGGA,224423.477,4531.019,N,12241.018,W,1,12,1.0,0.0,M,0.0,M,,*7F
$GPGSA,A,3,01,02,03,04,05,06,07,08,09,10,11,12,1.0,1.0,1.0*30
$GPRMC,224423.477,A,4531.019,N,12241.018,W,038.9,213.1,041218,000.0,W*66
$GPGGA,224424.477,4531.009,N,12241.024,W,1,12,1.0,0.0,M,0.0,M,,*76
$GPGSA,A,3,01,02,03,04,05,06,07,08,09,10,11,12,1.0,1.0,1.0*30
$GPRMC,224424.477,A,4531.009,N,12241.024,W,038.9,213.1,041218,000.0,W*6F
$GPGGA,224425.477,4530.999,N,12241.030,W,1,12,1.0,0.0,M,0.0,M,,*73
$GPGSA,A,3,01,02,03,04,05,06,07,08,09,10,11,12,1.0,1.0,1.0*30
$GPRMC,224425.477,A,4530.999,N,12241.030,W,038.9,213.1,041218,000.0,W*6A
$GPGGA,224426.477,4530.989,N,12241.037,W,1,12,1.0,0.0,M,0.0,M,,*76
$GPGSA,A,3,01,02,03,04,05,06,07,08,09,10,11,12,1.0,1.0,1.0*30
$GPRMC,224426.477,A,4530.989,N,12241.037,W,038.9,213.1,041218,000.0,W*6F
$GPGGA,224427.477,4530.979,N,12241.043,W,1,12,1.0,0.0,M,0.0,M,,*7B
$GPGSA,A,3,01,02,03,04,05,06,07,08,09,10,11,12,1.0,1.0,1.0*30
$GPRMC,224427.477,A,4530.979,N,12241.043,W,038.9,213.1,041218,000.0,W*62
$GPGGA,224428.477,4530.970,N,12241.050,W,1,12,1.0,0.0,M,0.0,M,,*7F
$GPGSA,A,3,01,02,03,04,05,06,07,08,09,10,11,12,1.0,1.0,1.0*30
$GPRMC,224428.477,A,4530.970,N,12241.050,W,038.9,213.1,041218,000.0,W*66
$GPGGA,224429.477,4530.960,N,12241.056,W,1,12,1.0,0.0,M,0.0,M,,*79
$GPGSA,A,3,01,02,03,04,05,06,07,08,09,10,11,12,1.0,1.0,1.0*30
$GPRMC,224429.477,A,4530.960,N,12241.056,W,038.9,105.3,041218,000.0,W*66
$GPGGA,224430.477,4530.956,N,12241.042,W,1,12,1.0,0.0,M,0.0,M,,*71
$GPGSA,A,3,01,02,03,04,05,06,07,08,09,10,11,12,1.0,1.0,1.0*30
$GPRMC,224430.477,A,4530.956,N,12241.042,W,038.9,105.3,041218,000.0,W*6E
$GPGGA,224431.477,4530.952,N,12241.027,W,1,12,1.0,0.0,M,0.0,M,,*77
$GPGSA,A,3,01,02,03,04,05,06,07,08,09,10,11,12,1.0,1.0,1.0*30
$GPRMC,224431.477,A,4530.952,N,12241.027,W,038.9,105.3,041218,000.0,W*68
$GPGGA,224432.477,4530.948,N,12241.013,W,1,12,1.0,0.0,M,0.0,M,,*78
$GPGSA,A,3,01,02,03,04,05,06,07,08,09,10,11,12,1.0,1.0,1.0*30
$GPRMC,224432.477,A,4530.948,N,12241.013,W,038.9,105.3,041218,000.0,W*67
$GPGGA,224433.477,4530.944,N,12240.999,W,1,12,1.0,0.0,M,0.0,M,,*7F
$GPGSA,A,3,01,02,03,04,05,06,07,08,09,10,11,12,1.0,1.0,1.0*30
$GPRMC,224433.477,A,4530.944,N,12240.999,W,038.9,105.3,041218,000.0,W*60
$GPGGA,224434.477,4530.940,N,12240.984,W,1,12,1.0,0.0,M,0.0,M,,*70
$GPGSA,A,3,01,02,03,04,05,06,07,08,09,10,11,12,1.0,1.0,1.0*30
$GPRMC,224434.477,A,4530.940,N,12240.984,W,038.9,105.3,041218,000.0,W*6F
$GPGGA,224435.477,4530.936,N,12240.970,W,1,12,1.0,0.0,M,0.0,M,,*7B
$GPGSA,A,3,01,02,03,04,05,06,07,08,09,10,11,12,1.0,1.0,1.0*30
$GPRMC,224435.477,A,4530.936,N,12240.970,W,038.9,105.3,041218,000.0,W*64
$GPGGA,224436.477,4530.932,N,12240.956,W,1,12,1.0,0.0,M,0.0,M,,*78
$GPGSA,A,3,01,02,03,04,05,06,07,08,09,10,11,12,1.0,1.0,1.0*30
$GPRMC,224436.477,A,4530.932,N,12240.956,W,038.9,105.3,041218,000.0,W*67
$GPGGA,224437.477,4530.928,N,12240.941,W,1,12,1.0,0.0,M,0.0,M,,*74
$GPGSA,A,3,01,02,03,04,05,06,07,08,09,10,11,12,1.0,1.0,1.0*30
$GPRMC,224437.477,A,4530.928,N,12240.941,W,038.9,105.3,041218,000.0,W*6B
$GPGGA,224438.477,4530.924,N,12240.927,W,1,12,1.0,0.0,M,0.0,M,,*77
$GPGSA,A,3,01,02,03,04,05,06,07,08,09,10,11,12,1.0,1.0,1.0*30
$GPRMC,224438.477,A,4530.924,N,12240.927,W,038.9,105.3,041218,000.0,W*68
$GPGGA,224439.477,4530.921,N,12240.913,W,1,12,1.0,0.0,M,0.0,M,,*74
$GPGSA,A,3,01,02,03,04,05,06,07,08,09,10,11,12,1.0,1.0,1.0*30
$GPRMC,224439.477,A,4530.921,N,12240.913,W,038.9,105.3,041218,000.0,W*6B
