$GPGGA,053132.829,4531.578,N,12241.667,W,1,12,1.0,0.0,M,0.0,M,,*73
$GPGSA,A,3,01,02,03,04,05,06,07,08,09,10,11,12,1.0,1.0,1.0*30
$GPRMC,053132.829,A,4531.578,N,12241.667,W,038.9,359.2,081218,000.0,W*6A
$GPGGA,053133.829,4531.589,N,12241.667,W,1,12,1.0,0.0,M,0.0,M,,*7C
$GPGSA,A,3,01,02,03,04,05,06,07,08,09,10,11,12,1.0,1.0,1.0*30
$GPRMC,053133.829,A,4531.589,N,12241.667,W,038.9,359.2,081218,000.0,W*65
$GPGGA,053134.829,4531.600,N,12241.668,W,1,12,1.0,0.0,M,0.0,M,,*76
$GPGSA,A,3,01,02,03,04,05,06,07,08,09,10,11,12,1.0,1.0,1.0*30
$GPRMC,053134.829,A,4531.600,N,12241.668,W,038.9,359.2,081218,000.0,W*6F
$GPGGA,053135.829,4531.610,N,12241.668,W,1,12,1.0,0.0,M,0.0,M,,*76
$GPGSA,A,3,01,02,03,04,05,06,07,08,09,10,11,12,1.0,1.0,1.0*30
$GPRMC,053135.829,A,4531.610,N,12241.668,W,038.9,359.2,081218,000.0,W*6F
$GPGGA,053136.829,4531.621,N,12241.668,W,1,12,1.0,0.0,M,0.0,M,,*77
$GPGSA,A,3,01,02,03,04,05,06,07,08,09,10,11,12,1.0,1.0,1.0*30
$GPRMC,053136.829,A,4531.621,N,12241.668,W,038.9,359.2,081218,000.0,W*6E
$GPGGA,053137.829,4531.632,N,12241.668,W,1,12,1.0,0.0,M,0.0,M,,*74
$GPGSA,A,3,01,02,03,04,05,06,07,08,09,10,11,12,1.0,1.0,1.0*30
$GPRMC,053137.829,A,4531.632,N,12241.668,W,038.9,359.2,081218,000.0,W*6D
$GPGGA,053138.829,4531.643,N,12241.668,W,1,12,1.0,0.0,M,0.0,M,,*7D
$GPGSA,A,3,01,02,03,04,05,06,07,08,09,10,11,12,1.0,1.0,1.0*30
$GPRMC,053138.829,A,4531.643,N,12241.668,W,038.9,359.2,081218,000.0,W*64
$GPGGA,053139.829,4531.653,N,12241.668,W,1,12,1.0,0.0,M,0.0,M,,*7D
$GPGSA,A,3,01,02,03,04,05,06,07,08,09,10,11,12,1.0,1.0,1.0*30
$GPRMC,053139.829,A,4531.653,N,12241.668,W,038.9,359.2,081218,000.0,W*64
$GPGGA,053140.829,4531.664,N,12241.669,W,1,12,1.0,0.0,M,0.0,M,,*76
$GPGSA,A,3,01,02,03,04,05,06,07,08,09,10,11,12,1.0,1.0,1.0*30
$GPRMC,053140.829,A,4531.664,N,12241.669,W,038.9,088.9,081218,000.0,W*6B
$GPGGA,053141.829,4531.665,N,12241.653,W,1,12,1.0,0.0,M,0.0,M,,*7F
$GPGSA,A,3,01,02,03,04,05,06,07,08,09,10,11,12,1.0,1.0,1.0*30
$GPRMC,053141.829,A,4531.665,N,12241.653,W,038.9,088.9,081218,000.0,W*62
$GPGGA,053142.829,4531.665,N,12241.638,W,1,12,1.0,0.0,M,0.0,M,,*71
$GPGSA,A,3,01,02,03,04,05,06,07,08,09,10,11,12,1.0,1.0,1.0*30
$GPRMC,053142.829,A,4531.665,N,12241.638,W,038.9,088.9,081218,000.0,W*6C
$GPGGA,053143.829,4531.665,N,12241.622,W,1,12,1.0,0.0,M,0.0,M,,*7B
$GPGSA,A,3,01,02,03,04,05,06,07,08,09,10,11,12,1.0,1.0,1.0*30
$GPRMC,053143.829,A,4531.665,N,12241.622,W,038.9,088.9,081218,000.0,W*66
$GPGGA,053144.829,4531.665,N,12241.607,W,1,12,1.0,0.0,M,0.0,M,,*7B
$GPGSA,A,3,01,02,03,04,05,06,07,08,09,10,11,12,1.0,1.0,1.0*30
$GPRMC,053144.829,A,4531.665,N,12241.607,W,038.9,088.9,081218,000.0,W*66
$GPGGA,053145.829,4531.666,N,12241.592,W,1,12,1.0,0.0,M,0.0,M,,*76
$GPGSA,A,3,01,02,03,04,05,06,07,08,09,10,11,12,1.0,1.0,1.0*30
$GPRMC,053145.829,A,4531.666,N,12241.592,W,038.9,088.9,081218,000.0,W*6B
$GPGGA,053146.829,4531.666,N,12241.576,W,1,12,1.0,0.0,M,0.0,M,,*7F
$GPGSA,A,3,01,02,03,04,05,06,07,08,09,10,11,12,1.0,1.0,1.0*30
$GPRMC,053146.829,A,4531.666,N,12241.576,W,038.9,088.9,081218,000.0,W*62
$GPGGA,053147.829,4531.666,N,12241.561,W,1,12,1.0,0.0,M,0.0,M,,*78
$GPGSA,A,3,01,02,03,04,05,06,07,08,09,10,11,12,1.0,1.0,1.0*30
$GPRMC,053147.829,A,4531.666,N,12241.561,W,038.9,088.9,081218,000.0,W*65
$GPGGA,053148.829,4531.667,N,12241.545,W,1,12,1.0,0.0,M,0.0,M,,*70
$GPGSA,A,3,01,02,03,04,05,06,07,08,09,10,11,12,1.0,1.0,1.0*30
$GPRMC,053148.829,A,4531.667,N,12241.545,W,038.9,088.9,081218,000.0,W*6D
$GPGGA,053149.829,4531.667,N,12241.530,W,1,12,1.0,0.0,M,0.0,M,,*73
$GPGSA,A,3,01,02,03,04,05,06,07,08,09,10,11,12,1.0,1.0,1.0*30
$GPRMC,053149.829,A,4531.667,N,12241.530,W,038.9,088.9,081218,000.0,W*6E
$GPGGA,053150.829,4531.667,N,12241.515,W,1,12,1.0,0.0,M,0.0,M,,*7C
$GPGSA,A,3,01,02,03,04,05,06,07,08,09,10,11,12,1.0,1.0,1.0*30
$GPRMC,053150.829,A,4531.667,N,12241.515,W,038.9,088.9,081218,000.0,W*61
$GPGGA,053151.829,4531.668,N,12241.499,W,1,12,1.0,0.0,M,0.0,M,,*77
$GPGSA,A,3,01,02,03,04,05,06,07,08,09,10,11,12,1.0,1.0,1.0*30
$GPRMC,053151.829,A,4531.668,N,12241.499,W,038.9,088.9,081218,000.0,W*6A
$GPGGA,053152.829,4531.668,N,12241.484,W,1,12,1.0,0.0,M,0.0,M,,*78
$GPGSA,A,3,01,02,03,04,05,06,07,08,09,10,11,12,1.0,1.0,1.0*30
$GPRMC,053152.829,A,4531.668,N,12241.484,W,038.9,088.9,081218,000.0,W*65
$GPGGA,053153.829,4531.668,N,12241.468,W,1,12,1.0,0.0,M,0.0,M,,*7B
$GPGSA,A,3,01,02,03,04,05,06,07,08,09,10,11,12,1.0,1.0,1.0*30
$GPRMC,053153.829,A,4531.668,N,12241.468,W,038.9,088.9,081218,000.0,W*66
$GPGGA,053154.829,4531.669,N,12241.453,W,1,12,1.0,0.0,M,0.0,M,,*75
$GPGSA,A,3,01,02,03,04,05,06,07,08,09,10,11,12,1.0,1.0,1.0*30
$GPRMC,053154.829,A,4531.669,N,12241.453,W,038.9,088.9,081218,000.0,W*68
$GPGGA,053155.829,4531.669,N,12241.438,W,1,12,1.0,0.0,M,0.0,M,,*79
$GPGSA,A,3,01,02,03,04,05,06,07,08,09,10,11,12,1.0,1.0,1.0*30
$GPRMC,053155.829,A,4531.669,N,12241.438,W,038.9,005.6,081218,000.0,W*6E
$GPGGA,053156.829,4531.680,N,12241.436,W,1,12,1.0,0.0,M,0.0,M,,*73
$GPGSA,A,3,01,02,03,04,05,06,07,08,09,10,11,12,1.0,1.0,1.0*30
$GPRMC,053156.829,A,4531.680,N,12241.436,W,038.9,005.6,081218,000.0,W*64
$GPGGA,053157.829,4531.690,N,12241.435,W,1,12,1.0,0.0,M,0.0,M,,*70
$GPGSA,A,3,01,02,03,04,05,06,07,08,09,10,11,12,1.0,1.0,1.0*30
$GPRMC,053157.829,A,4531.690,N,12241.435,W,038.9,005.6,081218,000.0,W*67
$GPGGA,053158.829,4531.701,N,12241.434,W,1,12,1.0,0.0,M,0.0,M,,*77
$GPGSA,A,3,01,02,03,04,05,06,07,08,09,10,11,12,1.0,1.0,1.0*30
$GPRMC,053158.829,A,4531.701,N,12241.434,W,038.9,005.6,081218,000.0,W*60
$GPGGA,053159.829,4531.712,N,12241.433,W,1,12,1.0,0.0,M,0.0,M,,*73
$GPGSA,A,3,01,02,03,04,05,06,07,08,09,10,11,12,1.0,1.0,1.0*30
$GPRMC,053159.829,A,4531.712,N,12241.433,W,038.9,005.6,081218,000.0,W*64
$GPGGA,053200.829,4531.723,N,12241.432,W,1,12,1.0,0.0,M,0.0,M,,*7F
$GPGSA,A,3,01,02,03,04,05,06,07,08,09,10,11,12,1.0,1.0,1.0*30
$GPRMC,053200.829,A,4531.723,N,12241.432,W,038.9,005.6,081218,000.0,W*68
$GPGGA,053201.829,4531.733,N,12241.431,W,1,12,1.0,0.0,M,0.0,M,,*7C
$GPGSA,A,3,01,02,03,04,05,06,07,08,09,10,11,12,1.0,1.0,1.0*30
$GPRMC,053201.829,A,4531.733,N,12241.431,W,038.9,005.6,081218,000.0,W*6B
$GPGGA,053202.829,4531.744,N,12241.430,W,1,12,1.0,0.0,M,0.0,M,,*7E
$GPGSA,A,3,01,02,03,04,05,06,07,08,09,10,11,12,1.0,1.0,1.0*30
$GPRMC,053202.829,A,4531.744,N,12241.430,W,038.9,005.6,081218,000.0,W*69
$GPGGA,053203.829,4531.755,N,12241.429,W,1,12,1.0,0.0,M,0.0,M,,*77
$GPGSA,A,3,01,02,03,04,05,06,07,08,09,10,11,12,1.0,1.0,1.0*30
$GPRMC,053203.829,A,4531.755,N,12241.429,W,038.9,089.4,081218,000.0,W*66
$GPGGA,053204.829,4531.755,N,12241.414,W,1,12,1.0,0.0,M,0.0,M,,*7E
$GPGSA,A,3,01,02,03,04,05,06,07,08,09,10,11,12,1.0,1.0,1.0*30
$GPRMC,053204.829,A,4531.755,N,12241.414,W,038.9,089.4,081218,000.0,W*6F
$GPGGA,053205.829,4531.755,N,12241.398,W,1,12,1.0,0.0,M,0.0,M,,*7C
$GPGSA,A,3,01,02,03,04,05,06,07,08,09,10,11,12,1.0,1.0,1.0*30
$GPRMC,053205.829,A,4531.755,N,12241.398,W,038.9,089.4,081218,000.0,W*6D
$GPGGA,053206.829,4531.755,N,12241.383,W,1,12,1.0,0.0,M,0.0,M,,*75
$GPGSA,A,3,01,02,03,04,05,06,07,08,09,10,11,12,1.0,1.0,1.0*30
$GPRMC,053206.829,A,4531.755,N,12241.383,W,038.9,089.4,081218,000.0,W*64
$GPGGA,053207.829,4531.756,N,12241.368,W,1,12,1.0,0.0,M,0.0,M,,*72
$GPGSA,A,3,01,02,03,04,05,06,07,08,09,10,11,12,1.0,1.0,1.0*30
$GPRMC,053207.829,A,4531.756,N,12241.368,W,038.9,179.1,081218,000.0,W*68
$GPGGA,053208.829,4531.745,N,12241.367,W,1,12,1.0,0.0,M,0.0,M,,*70
$GPGSA,A,3,01,02,03,04,05,06,07,08,09,10,11,12,1.0,1.0,1.0*30
$GPRMC,053208.829,A,4531.745,N,12241.367,W,038.9,179.1,081218,000.0,W*6A
$GPGGA,053209.829,4531.734,N,12241.367,W,1,12,1.0,0.0,M,0.0,M,,*77
$GPGSA,A,3,01,02,03,04,05,06,07,08,09,10,11,12,1.0,1.0,1.0*30
$GPRMC,053209.829,A,4531.734,N,12241.367,W,038.9,179.1,081218,000.0,W*6D
$GPGGA,053210.829,4531.723,N,12241.367,W,1,12,1.0,0.0,M,0.0,M,,*79
$GPGSA,A,3,01,02,03,04,05,06,07,08,09,10,11,12,1.0,1.0,1.0*30
$GPRMC,053210.829,A,4531.723,N,12241.367,W,038.9,179.1,081218,000.0,W*63
$GPGGA,053211.829,4531.712,N,12241.367,W,1,12,1.0,0.0,M,0.0,M,,*7A
$GPGSA,A,3,01,02,03,04,05,06,07,08,09,10,11,12,1.0,1.0,1.0*30
$GPRMC,053211.829,A,4531.712,N,12241.367,W,038.9,179.1,081218,000.0,W*60
$GPGGA,053212.829,4531.702,N,12241.367,W,1,12,1.0,0.0,M,0.0,M,,*78
$GPGSA,A,3,01,02,03,04,05,06,07,08,09,10,11,12,1.0,1.0,1.0*30
$GPRMC,053212.829,A,4531.702,N,12241.367,W,038.9,179.1,081218,000.0,W*62
$GPGGA,053213.829,4531.691,N,12241.366,W,1,12,1.0,0.0,M,0.0,M,,*73
$GPGSA,A,3,01,02,03,04,05,06,07,08,09,10,11,12,1.0,1.0,1.0*30
$GPRMC,053213.829,A,4531.691,N,12241.366,W,038.9,179.1,081218,000.0,W*69
$GPGGA,053214.829,4531.680,N,12241.366,W,1,12,1.0,0.0,M,0.0,M,,*74
$GPGSA,A,3,01,02,03,04,05,06,07,08,09,10,11,12,1.0,1.0,1.0*30
$GPRMC,053214.829,A,4531.680,N,12241.366,W,038.9,179.1,081218,000.0,W*6E
$GPGGA,053215.829,4531.669,N,12241.366,W,1,12,1.0,0.0,M,0.0,M,,*72
$GPGSA,A,3,01,02,03,04,05,06,07,08,09,10,11,12,1.0,1.0,1.0*30
$GPRMC,053215.829,A,4531.669,N,12241.366,W,038.9,179.1,081218,000.0,W*68
$GPGGA,053216.829,4531.659,N,12241.366,W,1,12,1.0,0.0,M,0.0,M,,*72
$GPGSA,A,3,01,02,03,04,05,06,07,08,09,10,11,12,1.0,1.0,1.0*30
$GPRMC,053216.829,A,4531.659,N,12241.366,W,038.9,179.1,081218,000.0,W*68
$GPGGA,053217.829,4531.648,N,12241.366,W,1,12,1.0,0.0,M,0.0,M,,*73
$GPGSA,A,3,01,02,03,04,05,06,07,08,09,10,11,12,1.0,1.0,1.0*30
$GPRMC,053217.829,A,4531.648,N,12241.366,W,038.9,179.1,081218,000.0,W*69
$GPGGA,053218.829,4531.637,N,12241.366,W,1,12,1.0,0.0,M,0.0,M,,*74
$GPGSA,A,3,01,02,03,04,05,06,07,08,09,10,11,12,1.0,1.0,1.0*30
$GPRMC,053218.829,A,4531.637,N,12241.366,W,038.9,179.1,081218,000.0,W*6E
$GPGGA,053219.829,4531.626,N,12241.365,W,1,12,1.0,0.0,M,0.0,M,,*76
$GPGSA,A,3,01,02,03,04,05,06,07,08,09,10,11,12,1.0,1.0,1.0*30
$GPRMC,053219.829,A,4531.626,N,12241.365,W,038.9,179.1,081218,000.0,W*6C
$GPGGA,053220.829,4531.615,N,12241.365,W,1,12,1.0,0.0,M,0.0,M,,*7C
$GPGSA,A,3,01,02,03,04,05,06,07,08,09,10,11,12,1.0,1.0,1.0*30
$GPRMC,053220.829,A,4531.615,N,12241.365,W,038.9,179.1,081218,000.0,W*66
$GPGGA,053221.829,4531.605,N,12241.365,W,1,12,1.0,0.0,M,0.0,M,,*7C
$GPGSA,A,3,01,02,03,04,05,06,07,08,09,10,11,12,1.0,1.0,1.0*30
$GPRMC,053221.829,A,4531.605,N,12241.365,W,038.9,179.1,081218,000.0,W*66
$GPGGA,053222.829,4531.594,N,12241.365,W,1,12,1.0,0.0,M,0.0,M,,*74
$GPGSA,A,3,01,02,03,04,05,06,07,08,09,10,11,12,1.0,1.0,1.0*30
$GPRMC,053222.829,A,4531.594,N,12241.365,W,038.9,179.1,081218,000.0,W*6E
$GPGGA,053223.829,4531.583,N,12241.365,W,1,12,1.0,0.0,M,0.0,M,,*73
$GPGSA,A,3,01,02,03,04,05,06,07,08,09,10,11,12,1.0,1.0,1.0*30
$GPRMC,053223.829,A,4531.583,N,12241.365,W,038.9,268.6,081218,000.0,W*6D
$GPGGA,053224.829,4531.583,N,12241.380,W,1,12,1.0,0.0,M,0.0,M,,*7F
$GPGSA,A,3,01,02,03,04,05,06,07,08,09,10,11,12,1.0,1.0,1.0*30
$GPRMC,053224.829,A,4531.583,N,12241.380,W,038.9,268.6,081218,000.0,W*61
$GPGGA,053225.829,4531.582,N,12241.396,W,1,12,1.0,0.0,M,0.0,M,,*78
$GPGSA,A,3,01,02,03,04,05,06,07,08,09,10,11,12,1.0,1.0,1.0*30
$GPRMC,053225.829,A,4531.582,N,12241.396,W,038.9,268.6,081218,000.0,W*66
$GPGGA,053226.829,4531.582,N,12241.411,W,1,12,1.0,0.0,M,0.0,M,,*73
$GPGSA,A,3,01,02,03,04,05,06,07,08,09,10,11,12,1.0,1.0,1.0*30
$GPRMC,053226.829,A,4531.582,N,12241.411,W,038.9,342.0,081218,000.0,W*62
$GPGGA,053227.829,4531.592,N,12241.414,W,1,12,1.0,0.0,M,0.0,M,,*76
$GPGSA,A,3,01,02,03,04,05,06,07,08,09,10,11,12,1.0,1.0,1.0*30
$GPRMC,053227.829,A,4531.592,N,12241.414,W,038.9,342.0,081218,000.0,W*67
$GPGGA,053228.829,4531.603,N,12241.418,W,1,12,1.0,0.0,M,0.0,M,,*7E
$GPGSA,A,3,01,02,03,04,05,06,07,08,09,10,11,12,1.0,1.0,1.0*30
$GPRMC,053228.829,A,4531.603,N,12241.418,W,038.9,342.0,081218,000.0,W*6F
$GPGGA,053229.829,4531.613,N,12241.421,W,1,12,1.0,0.0,M,0.0,M,,*74
$GPGSA,A,3,01,02,03,04,05,06,07,08,09,10,11,12,1.0,1.0,1.0*30
$GPRMC,053229.829,A,4531.613,N,12241.421,W,038.9,342.0,081218,000.0,W*65
$GPGGA,053230.829,4531.624,N,12241.425,W,1,12,1.0,0.0,M,0.0,M,,*7C
$GPGSA,A,3,01,02,03,04,05,06,07,08,09,10,11,12,1.0,1.0,1.0*30
$GPRMC,053230.829,A,4531.624,N,12241.425,W,038.9,269.6,081218,000.0,W*63
$GPGGA,053231.829,4531.624,N,12241.440,W,1,12,1.0,0.0,M,0.0,M,,*7E
$GPGSA,A,3,01,02,03,04,05,06,07,08,09,10,11,12,1.0,1.0,1.0*30
$GPRMC,053231.829,A,4531.624,N,12241.440,W,038.9,269.6,081218,000.0,W*61
$GPGGA,053232.829,4531.624,N,12241.455,W,1,12,1.0,0.0,M,0.0,M,,*79
$GPGSA,A,3,01,02,03,04,05,06,07,08,09,10,11,12,1.0,1.0,1.0*30
$GPRMC,053232.829,A,4531.624,N,12241.455,W,038.9,269.6,081218,000.0,W*66
$GPGGA,053233.829,4531.624,N,12241.471,W,1,12,1.0,0.0,M,0.0,M,,*7E
$GPGSA,A,3,01,02,03,04,05,06,07,08,09,10,11,12,1.0,1.0,1.0*30
$GPRMC,053233.829,A,4531.624,N,12241.471,W,038.9,269.6,081218,000.0,W*61
$GPGGA,053234.829,4531.623,N,12241.486,W,1,12,1.0,0.0,M,0.0,M,,*76
$GPGSA,A,3,01,02,03,04,05,06,07,08,09,10,11,12,1.0,1.0,1.0*30
$GPRMC,053234.829,A,4531.623,N,12241.486,W,038.9,269.6,081218,000.0,W*69
$GPGGA,053235.829,4531.623,N,12241.502,W,1,12,1.0,0.0,M,0.0,M,,*7A
$GPGSA,A,3,01,02,03,04,05,06,07,08,09,10,11,12,1.0,1.0,1.0*30
$GPRMC,053235.829,A,4531.623,N,12241.502,W,038.9,269.6,081218,000.0,W*65
$GPGGA,053236.829,4531.623,N,12241.517,W,1,12,1.0,0.0,M,0.0,M,,*7D
$GPGSA,A,3,01,02,03,04,05,06,07,08,09,10,11,12,1.0,1.0,1.0*30
$GPRMC,053236.829,A,4531.623,N,12241.517,W,038.9,269.6,081218,000.0,W*62
$GPGGA,053237.829,4531.623,N,12241.532,W,1,12,1.0,0.0,M,0.0,M,,*7B
$GPGSA,A,3,01,02,03,04,05,06,07,08,09,10,11,12,1.0,1.0,1.0*30
$GPRMC,053237.829,A,4531.623,N,12241.532,W,038.9,269.6,081218,000.0,W*64
$GPGGA,053238.829,4531.623,N,12241.548,W,1,12,1.0,0.0,M,0.0,M,,*79
$GPGSA,A,3,01,02,03,04,05,06,07,08,09,10,11,12,1.0,1.0,1.0*30
$GPRMC,053238.829,A,4531.623,N,12241.548,W,038.9,177.0,081218,000.0,W*6C
$GPGGA,053239.829,4531.612,N,12241.547,W,1,12,1.0,0.0,M,0.0,M,,*75
$GPGSA,A,3,01,02,03,04,05,06,07,08,09,10,11,12,1.0,1.0,1.0*30
$GPRMC,053239.829,A,4531.612,N,12241.547,W,038.9,177.0,081218,000.0,W*60
$GPGGA,053240.829,4531.601,N,12241.547,W,1,12,1.0,0.0,M,0.0,M,,*79
$GPGSA,A,3,01,02,03,04,05,06,07,08,09,10,11,12,1.0,1.0,1.0*30
$GPRMC,053240.829,A,4531.601,N,12241.547,W,038.9,177.0,081218,000.0,W*6C
$GPGGA,053241.829,4531.591,N,12241.546,W,1,12,1.0,0.0,M,0.0,M,,*73
$GPGSA,A,3,01,02,03,04,05,06,07,08,09,10,11,12,1.0,1.0,1.0*30
$GPRMC,053241.829,A,4531.591,N,12241.546,W,038.9,177.0,081218,000.0,W*66
$GPGGA,053242.829,4531.580,N,12241.546,W,1,12,1.0,0.0,M,0.0,M,,*70
$GPGSA,A,3,01,02,03,04,05,06,07,08,09,10,11,12,1.0,1.0,1.0*30
$GPRMC,053242.829,A,4531.580,N,12241.546,W,038.9,177.0,081218,000.0,W*65
$GPGGA,053243.829,4531.569,N,12241.545,W,1,12,1.0,0.0,M,0.0,M,,*75
$GPGSA,A,3,01,02,03,04,05,06,07,08,09,10,11,12,1.0,1.0,1.0*30
$GPRMC,053243.829,A,4531.569,N,12241.545,W,038.9,177.0,081218,000.0,W*60
$GPGGA,053244.829,4531.558,N,12241.544,W,1,12,1.0,0.0,M,0.0,M,,*71
$GPGSA,A,3,01,02,03,04,05,06,07,08,09,10,11,12,1.0,1.0,1.0*30
$GPRMC,053244.829,A,4531.558,N,12241.544,W,038.9,177.0,081218,000.0,W*64
$GPGGA,053245.829,4531.548,N,12241.544,W,1,12,1.0,0.0,M,0.0,M,,*71
$GPGSA,A,3,01,02,03,04,05,06,07,08,09,10,11,12,1.0,1.0,1.0*30
$GPRMC,053245.829,A,4531.548,N,12241.544,W,038.9,177.0,081218,000.0,W*64
$GPGGA,053246.829,4531.537,N,12241.543,W,1,12,1.0,0.0,M,0.0,M,,*7D
$GPGSA,A,3,01,02,03,04,05,06,07,08,09,10,11,12,1.0,1.0,1.0*30
$GPRMC,053246.829,A,4531.537,N,12241.543,W,038.9,177.0,081218,000.0,W*68
$GPGGA,053247.829,4531.526,N,12241.543,W,1,12,1.0,0.0,M,0.0,M,,*7C
$GPGSA,A,3,01,02,03,04,05,06,07,08,09,10,11,12,1.0,1.0,1.0*30
$GPRMC,053247.829,A,4531.526,N,12241.543,W,038.9,177.0,081218,000.0,W*69
$GPGGA,053248.829,4531.515,N,12241.542,W,1,12,1.0,0.0,M,0.0,M,,*72
$GPGSA,A,3,01,02,03,04,05,06,07,08,09,10,11,12,1.0,1.0,1.0*30
$GPRMC,053248.829,A,4531.515,N,12241.542,W,038.9,177.0,081218,000.0,W*67
$GPGGA,053249.829,4531.504,N,12241.542,W,1,12,1.0,0.0,M,0.0,M,,*73
$GPGSA,A,3,01,02,03,04,05,06,07,08,09,10,11,12,1.0,1.0,1.0*30
$GPRMC,053249.829,A,4531.504,N,12241.542,W,038.9,177.0,081218,000.0,W*66
$GPGGA,053250.829,4531.494,N,12241.541,W,1,12,1.0,0.0,M,0.0,M,,*70
$GPGSA,A,3,01,02,03,04,05,06,07,08,09,10,11,12,1.0,1.0,1.0*30
$GPRMC,053250.829,A,4531.494,N,12241.541,W,038.9,088.1,081218,000.0,W*65
$GPGGA,053251.829,4531.494,N,12241.526,W,1,12,1.0,0.0,M,0.0,M,,*70
$GPGSA,A,3,01,02,03,04,05,06,07,08,09,10,11,12,1.0,1.0,1.0*30
$GPRMC,053251.829,A,4531.494,N,12241.526,W,038.9,088.1,081218,000.0,W*65
$GPGGA,053252.829,4531.495,N,12241.510,W,1,12,1.0,0.0,M,0.0,M,,*77
$GPGSA,A,3,01,02,03,04,05,06,07,08,09,10,11,12,1.0,1.0,1.0*30
$GPRMC,053252.829,A,4531.495,N,12241.510,W,038.9,088.1,081218,000.0,W*62
$GPGGA,053253.829,4531.495,N,12241.495,W,1,12,1.0,0.0,M,0.0,M,,*7A
$GPGSA,A,3,01,02,03,04,05,06,07,08,09,10,11,12,1.0,1.0,1.0*30
$GPRMC,053253.829,A,4531.495,N,12241.495,W,038.9,088.1,081218,000.0,W*6F
$GPGGA,053254.829,4531.496,N,12241.480,W,1,12,1.0,0.0,M,0.0,M,,*7A
$GPGSA,A,3,01,02,03,04,05,06,07,08,09,10,11,12,1.0,1.0,1.0*30
$GPRMC,053254.829,A,4531.496,N,12241.480,W,038.9,088.1,081218,000.0,W*6F
$GPGGA,053255.829,4531.496,N,12241.464,W,1,12,1.0,0.0,M,0.0,M,,*71
$GPGSA,A,3,01,02,03,04,05,06,07,08,09,10,11,12,1.0,1.0,1.0*30
$GPRMC,053255.829,A,4531.496,N,12241.464,W,038.9,088.1,081218,000.0,W*64
$GPGGA,053256.829,4531.497,N,12241.449,W,1,12,1.0,0.0,M,0.0,M,,*7C
$GPGSA,A,3,01,02,03,04,05,06,07,08,09,10,11,12,1.0,1.0,1.0*30
$GPRMC,053256.829,A,4531.497,N,12241.449,W,038.9,088.1,081218,000.0,W*69
$GPGGA,053257.829,4531.497,N,12241.433,W,1,12,1.0,0.0,M,0.0,M,,*70
$GPGSA,A,3,01,02,03,04,05,06,07,08,09,10,11,12,1.0,1.0,1.0*30
$GPRMC,053257.829,A,4531.497,N,12241.433,W,038.9,172.2,081218,000.0,W*62
$GPGGA,053258.829,4531.486,N,12241.432,W,1,12,1.0,0.0,M,0.0,M,,*7E
$GPGSA,A,3,01,02,03,04,05,06,07,08,09,10,11,12,1.0,1.0,1.0*30
$GPRMC,053258.829,A,4531.486,N,12241.432,W,038.9,172.2,081218,000.0,W*6C
$GPGGA,053259.829,4531.476,N,12241.430,W,1,12,1.0,0.0,M,0.0,M,,*72
$GPGSA,A,3,01,02,03,04,05,06,07,08,09,10,11,12,1.0,1.0,1.0*30
$GPRMC,053259.829,A,4531.476,N,12241.430,W,038.9,172.2,081218,000.0,W*60
$GPGGA,053300.829,4531.465,N,12241.429,W,1,12,1.0,0.0,M,0.0,M,,*75
$GPGSA,A,3,01,02,03,04,05,06,07,08,09,10,11,12,1.0,1.0,1.0*30
$GPRMC,053300.829,A,4531.465,N,12241.429,W,038.9,172.2,081218,000.0,W*67
$GPGGA,053301.829,4531.454,N,12241.428,W,1,12,1.0,0.0,M,0.0,M,,*77
$GPGSA,A,3,01,02,03,04,05,06,07,08,09,10,11,12,1.0,1.0,1.0*30
$GPRMC,053301.829,A,4531.454,N,12241.428,W,038.9,172.2,081218,000.0,W*65
$GPGGA,053302.829,4531.443,N,12241.426,W,1,12,1.0,0.0,M,0.0,M,,*7C
$GPGSA,A,3,01,02,03,04,05,06,07,08,09,10,11,12,1.0,1.0,1.0*30
$GPRMC,053302.829,A,4531.443,N,12241.426,W,038.9,172.2,081218,000.0,W*6E
$GPGGA,053303.829,4531.433,N,12241.425,W,1,12,1.0,0.0,M,0.0,M,,*79
$GPGSA,A,3,01,02,03,04,05,06,07,08,09,10,11,12,1.0,1.0,1.0*30
$GPRMC,053303.829,A,4531.433,N,12241.425,W,038.9,172.2,081218,000.0,W*6B
$GPGGA,053304.829,4531.422,N,12241.423,W,1,12,1.0,0.0,M,0.0,M,,*78
$GPGSA,A,3,01,02,03,04,05,06,07,08,09,10,11,12,1.0,1.0,1.0*30
$GPRMC,053304.829,A,4531.422,N,12241.423,W,038.9,172.2,081218,000.0,W*6A
$GPGGA,053305.829,4531.411,N,12241.422,W,1,12,1.0,0.0,M,0.0,M,,*78
$GPGSA,A,3,01,02,03,04,05,06,07,08,09,10,11,12,1.0,1.0,1.0*30
$GPRMC,053305.829,A,4531.411,N,12241.422,W,038.9,172.2,081218,000.0,W*6A
$GPGGA,053306.829,4531.401,N,12241.420,W,1,12,1.0,0.0,M,0.0,M,,*78
$GPGSA,A,3,01,02,03,04,05,06,07,08,09,10,11,12,1.0,1.0,1.0*30
$GPRMC,053306.829,A,4531.401,N,12241.420,W,038.9,172.2,081218,000.0,W*6A
$GPGGA,053307.829,4531.390,N,12241.419,W,1,12,1.0,0.0,M,0.0,M,,*7C
$GPGSA,A,3,01,02,03,04,05,06,07,08,09,10,11,12,1.0,1.0,1.0*30
$GPRMC,053307.829,A,4531.390,N,12241.419,W,038.9,102.4,081218,000.0,W*6F
$GPGGA,053308.829,4531.387,N,12241.404,W,1,12,1.0,0.0,M,0.0,M,,*79
$GPGSA,A,3,01,02,03,04,05,06,07,08,09,10,11,12,1.0,1.0,1.0*30
$GPRMC,053308.829,A,4531.387,N,12241.404,W,038.9,102.4,081218,000.0,W*6A
$GPGGA,053309.829,4531.383,N,12241.389,W,1,12,1.0,0.0,M,0.0,M,,*7E
$GPGSA,A,3,01,02,03,04,05,06,07,08,09,10,11,12,1.0,1.0,1.0*30
$GPRMC,053309.829,A,4531.383,N,12241.389,W,038.9,102.4,081218,000.0,W*6D
$GPGGA,053310.829,4531.380,N,12241.375,W,1,12,1.0,0.0,M,0.0,M,,*76
$GPGSA,A,3,01,02,03,04,05,06,07,08,09,10,11,12,1.0,1.0,1.0*30
$GPRMC,053310.829,A,4531.380,N,12241.375,W,038.9,210.0,081218,000.0,W*61
$GPGGA,053311.829,4531.370,N,12241.380,W,1,12,1.0,0.0,M,0.0,M,,*72
$GPGSA,A,3,01,02,03,04,05,06,07,08,09,10,11,12,1.0,1.0,1.0*30
$GPRMC,053311.829,A,4531.370,N,12241.380,W,038.9,210.0,081218,000.0,W*65
$GPGGA,053312.829,4531.360,N,12241.386,W,1,12,1.0,0.0,M,0.0,M,,*76
$GPGSA,A,3,01,02,03,04,05,06,07,08,09,10,11,12,1.0,1.0,1.0*30
$GPRMC,053312.829,A,4531.360,N,12241.386,W,038.9,210.0,081218,000.0,W*61
$GPGGA,053313.829,4531.350,N,12241.392,W,1,12,1.0,0.0,M,0.0,M,,*71
$GPGSA,A,3,01,02,03,04,05,06,07,08,09,10,11,12,1.0,1.0,1.0*30
$GPRMC,053313.829,A,4531.350,N,12241.392,W,038.9,210.0,081218,000.0,W*66
$GPGGA,053314.829,4531.340,N,12241.398,W,1,12,1.0,0.0,M,0.0,M,,*7D
$GPGSA,A,3,01,02,03,04,05,06,07,08,09,10,11,12,1.0,1.0,1.0*30
$GPRMC,053314.829,A,4531.340,N,12241.398,W,038.9,335.3,081218,000.0,W*6F
$GPGGA,053315.829,4531.350,N,12241.402,W,1,12,1.0,0.0,M,0.0,M,,*79
$GPGSA,A,3,01,02,03,04,05,06,07,08,09,10,11,12,1.0,1.0,1.0*30
$GPRMC,053315.829,A,4531.350,N,12241.402,W,038.9,335.3,081218,000.0,W*6B
$GPGGA,053316.829,4531.361,N,12241.407,W,1,12,1.0,0.0,M,0.0,M,,*7D
$GPGSA,A,3,01,02,03,04,05,06,07,08,09,10,11,12,1.0,1.0,1.0*30
$GPRMC,053316.829,A,4531.361,N,12241.407,W,038.9,335.3,081218,000.0,W*6F
$GPGGA,053317.829,4531.371,N,12241.412,W,1,12,1.0,0.0,M,0.0,M,,*79
$GPGSA,A,3,01,02,03,04,05,06,07,08,09,10,11,12,1.0,1.0,1.0*30
$GPRMC,053317.829,A,4531.371,N,12241.412,W,038.9,335.3,081218,000.0,W*6B
$GPGGA,053318.829,4531.381,N,12241.417,W,1,12,1.0,0.0,M,0.0,M,,*7C
$GPGSA,A,3,01,02,03,04,05,06,07,08,09,10,11,12,1.0,1.0,1.0*30
$GPRMC,053318.829,A,4531.381,N,12241.417,W,038.9,272.8,081218,000.0,W*67
$GPGGA,053319.829,4531.382,N,12241.432,W,1,12,1.0,0.0,M,0.0,M,,*79
$GPGSA,A,3,01,02,03,04,05,06,07,08,09,10,11,12,1.0,1.0,1.0*30
$GPRMC,053319.829,A,4531.382,N,12241.432,W,038.9,272.8,081218,000.0,W*62
$GPGGA,053320.829,4531.383,N,12241.447,W,1,12,1.0,0.0,M,0.0,M,,*70
$GPGSA,A,3,01,02,03,04,05,06,07,08,09,10,11,12,1.0,1.0,1.0*30
$GPRMC,053320.829,A,4531.383,N,12241.447,W,038.9,272.8,081218,000.0,W*6B
$GPGGA,053321.829,4531.383,N,12241.463,W,1,12,1.0,0.0,M,0.0,M,,*77
$GPGSA,A,3,01,02,03,04,05,06,07,08,09,10,11,12,1.0,1.0,1.0*30
$GPRMC,053321.829,A,4531.383,N,12241.463,W,038.9,272.8,081218,000.0,W*6C
$GPGGA,053322.829,4531.384,N,12241.478,W,1,12,1.0,0.0,M,0.0,M,,*79
$GPGSA,A,3,01,02,03,04,05,06,07,08,09,10,11,12,1.0,1.0,1.0*30
$GPRMC,053322.829,A,4531.384,N,12241.478,W,038.9,272.8,081218,000.0,W*62
$GPGGA,053323.829,4531.385,N,12241.493,W,1,12,1.0,0.0,M,0.0,M,,*7C
$GPGSA,A,3,01,02,03,04,05,06,07,08,09,10,11,12,1.0,1.0,1.0*30
$GPRMC,053323.829,A,4531.385,N,12241.493,W,038.9,272.8,081218,000.0,W*67
$GPGGA,053324.829,4531.386,N,12241.509,W,1,12,1.0,0.0,M,0.0,M,,*7A
$GPGSA,A,3,01,02,03,04,05,06,07,08,09,10,11,12,1.0,1.0,1.0*30
$GPRMC,053324.829,A,4531.386,N,12241.509,W,038.9,272.8,081218,000.0,W*61
$GPGGA,053325.829,4531.386,N,12241.524,W,1,12,1.0,0.0,M,0.0,M,,*74
$GPGSA,A,3,01,02,03,04,05,06,07,08,09,10,11,12,1.0,1.0,1.0*30
$GPRMC,053325.829,A,4531.386,N,12241.524,W,038.9,272.8,081218,000.0,W*6F
$GPGGA,053326.829,4531.387,N,12241.540,W,1,12,1.0,0.0,M,0.0,M,,*74
$GPGSA,A,3,01,02,03,04,05,06,07,08,09,10,11,12,1.0,1.0,1.0*30
$GPRMC,053326.829,A,4531.387,N,12241.540,W,038.9,272.8,081218,000.0,W*6F
$GPGGA,053327.829,4531.388,N,12241.555,W,1,12,1.0,0.0,M,0.0,M,,*7E
$GPGSA,A,3,01,02,03,04,05,06,07,08,09,10,11,12,1.0,1.0,1.0*30
$GPRMC,053327.829,A,4531.388,N,12241.555,W,038.9,272.8,081218,000.0,W*65
$GPGGA,053328.829,4531.389,N,12241.570,W,1,12,1.0,0.0,M,0.0,M,,*77
$GPGSA,A,3,01,02,03,04,05,06,07,08,09,10,11,12,1.0,1.0,1.0*30
$GPRMC,053328.829,A,4531.389,N,12241.570,W,038.9,272.8,081218,000.0,W*6C
$GPGGA,053329.829,4531.389,N,12241.586,W,1,12,1.0,0.0,M,0.0,M,,*7F
$GPGSA,A,3,01,02,03,04,05,06,07,08,09,10,11,12,1.0,1.0,1.0*30
$GPRMC,053329.829,A,4531.389,N,12241.586,W,038.9,272.8,081218,000.0,W*64
$GPGGA,053330.829,4531.390,N,12241.601,W,1,12,1.0,0.0,M,0.0,M,,*73
$GPGSA,A,3,01,02,03,04,05,06,07,08,09,10,11,12,1.0,1.0,1.0*30
$GPRMC,053330.829,A,4531.390,N,12241.601,W,038.9,272.8,081218,000.0,W*68
$GPGGA,053331.829,4531.391,N,12241.616,W,1,12,1.0,0.0,M,0.0,M,,*75
$GPGSA,A,3,01,02,03,04,05,06,07,08,09,10,11,12,1.0,1.0,1.0*30
$GPRMC,053331.829,A,4531.391,N,12241.616,W,038.9,272.8,081218,000.0,W*6E
$GPGGA,053332.829,4531.392,N,12241.632,W,1,12,1.0,0.0,M,0.0,M,,*73
$GPGSA,A,3,01,02,03,04,05,06,07,08,09,10,11,12,1.0,1.0,1.0*30
$GPRMC,053332.829,A,4531.392,N,12241.632,W,038.9,272.8,081218,000.0,W*68
$GPGGA,053333.829,4531.392,N,12241.647,W,1,12,1.0,0.0,M,0.0,M,,*70
$GPGSA,A,3,01,02,03,04,05,06,07,08,09,10,11,12,1.0,1.0,1.0*30
$GPRMC,053333.829,A,4531.392,N,12241.647,W,038.9,352.3,081218,000.0,W*63
$GPGGA,053334.829,4531.403,N,12241.649,W,1,12,1.0,0.0,M,0.0,M,,*76
$GPGSA,A,3,01,02,03,04,05,06,07,08,09,10,11,12,1.0,1.0,1.0*30
$GPRMC,053334.829,A,4531.403,N,12241.649,W,038.9,352.3,081218,000.0,W*65
$GPGGA,053335.829,4531.414,N,12241.650,W,1,12,1.0,0.0,M,0.0,M,,*79
$GPGSA,A,3,01,02,03,04,05,06,07,08,09,10,11,12,1.0,1.0,1.0*30
$GPRMC,053335.829,A,4531.414,N,12241.650,W,038.9,352.3,081218,000.0,W*6A
$GPGGA,053336.829,4531.425,N,12241.651,W,1,12,1.0,0.0,M,0.0,M,,*79
$GPGSA,A,3,01,02,03,04,05,06,07,08,09,10,11,12,1.0,1.0,1.0*30
$GPRMC,053336.829,A,4531.425,N,12241.651,W,038.9,352.3,081218,000.0,W*6A
$GPGGA,053337.829,4531.435,N,12241.653,W,1,12,1.0,0.0,M,0.0,M,,*7B
$GPGSA,A,3,01,02,03,04,05,06,07,08,09,10,11,12,1.0,1.0,1.0*30
$GPRMC,053337.829,A,4531.435,N,12241.653,W,038.9,352.3,081218,000.0,W*68
$GPGGA,053338.829,4531.446,N,12241.654,W,1,12,1.0,0.0,M,0.0,M,,*77
$GPGSA,A,3,01,02,03,04,05,06,07,08,09,10,11,12,1.0,1.0,1.0*30
$GPRMC,053338.829,A,4531.446,N,12241.654,W,038.9,352.3,081218,000.0,W*64
$GPGGA,053339.829,4531.457,N,12241.656,W,1,12,1.0,0.0,M,0.0,M,,*74
$GPGSA,A,3,01,02,03,04,05,06,07,08,09,10,11,12,1.0,1.0,1.0*30
$GPRMC,053339.829,A,4531.457,N,12241.656,W,038.9,352.3,081218,000.0,W*67
$GPGGA,053340.829,4531.468,N,12241.657,W,1,12,1.0,0.0,M,0.0,M,,*77
$GPGSA,A,3,01,02,03,04,05,06,07,08,09,10,11,12,1.0,1.0,1.0*30
$GPRMC,053340.829,A,4531.468,N,12241.657,W,038.9,352.3,081218,000.0,W*64
$GPGGA,053341.829,4531.478,N,12241.659,W,1,12,1.0,0.0,M,0.0,M,,*79
$GPGSA,A,3,01,02,03,04,05,06,07,08,09,10,11,12,1.0,1.0,1.0*30
$GPRMC,053341.829,A,4531.478,N,12241.659,W,038.9,352.3,081218,000.0,W*6A
$GPGGA,053342.829,4531.489,N,12241.660,W,1,12,1.0,0.0,M,0.0,M,,*7E
$GPGSA,A,3,01,02,03,04,05,06,07,08,09,10,11,12,1.0,1.0,1.0*30
$GPRMC,053342.829,A,4531.489,N,12241.660,W,038.9,270.6,081218,000.0,W*69
$GPGGA,053343.829,4531.489,N,12241.676,W,1,12,1.0,0.0,M,0.0,M,,*78
$GPGSA,A,3,01,02,03,04,05,06,07,08,09,10,11,12,1.0,1.0,1.0*30
$GPRMC,053343.829,A,4531.489,N,12241.676,W,038.9,270.6,081218,000.0,W*6F
$GPGGA,053344.829,4531.489,N,12241.691,W,1,12,1.0,0.0,M,0.0,M,,*76
$GPGSA,A,3,01,02,03,04,05,06,07,08,09,10,11,12,1.0,1.0,1.0*30
$GPRMC,053344.829,A,4531.489,N,12241.691,W,038.9,270.6,081218,000.0,W*61
$GPGGA,053345.829,4531.490,N,12241.706,W,1,12,1.0,0.0,M,0.0,M,,*70
$GPGSA,A,3,01,02,03,04,05,06,07,08,09,10,11,12,1.0,1.0,1.0*30
$GPRMC,053345.829,A,4531.490,N,12241.706,W,038.9,270.6,081218,000.0,W*67
$GPGGA,053346.829,4531.490,N,12241.722,W,1,12,1.0,0.0,M,0.0,M,,*75
$GPGSA,A,3,01,02,03,04,05,06,07,08,09,10,11,12,1.0,1.0,1.0*30
$GPRMC,053346.829,A,4531.490,N,12241.722,W,038.9,270.6,081218,000.0,W*62
$GPGGA,053347.829,4531.490,N,12241.737,W,1,12,1.0,0.0,M,0.0,M,,*70
$GPGSA,A,3,01,02,03,04,05,06,07,08,09,10,11,12,1.0,1.0,1.0*30
$GPRMC,053347.829,A,4531.490,N,12241.737,W,038.9,270.6,081218,000.0,W*67
$GPGGA,053348.829,4531.490,N,12241.753,W,1,12,1.0,0.0,M,0.0,M,,*7D
$GPGSA,A,3,01,02,03,04,05,06,07,08,09,10,11,12,1.0,1.0,1.0*30
$GPRMC,053348.829,A,4531.490,N,12241.753,W,038.9,270.6,081218,000.0,W*6A
$GPGGA,053349.829,4531.490,N,12241.768,W,1,12,1.0,0.0,M,0.0,M,,*74
$GPGSA,A,3,01,02,03,04,05,06,07,08,09,10,11,12,1.0,1.0,1.0*30
$GPRMC,053349.829,A,4531.490,N,12241.768,W,038.9,270.6,081218,000.0,W*63
$GPGGA,053350.829,4531.490,N,12241.783,W,1,12,1.0,0.0,M,0.0,M,,*79
$GPGSA,A,3,01,02,03,04,05,06,07,08,09,10,11,12,1.0,1.0,1.0*30
$GPRMC,053350.829,A,4531.490,N,12241.783,W,038.9,356.2,081218,000.0,W*6F
$GPGGA,053351.829,4531.501,N,12241.784,W,1,12,1.0,0.0,M,0.0,M,,*76
$GPGSA,A,3,01,02,03,04,05,06,07,08,09,10,11,12,1.0,1.0,1.0*30
$GPRMC,053351.829,A,4531.501,N,12241.784,W,038.9,356.2,081218,000.0,W*60
$GPGGA,053352.829,4531.512,N,12241.785,W,1,12,1.0,0.0,M,0.0,M,,*76
$GPGSA,A,3,01,02,03,04,05,06,07,08,09,10,11,12,1.0,1.0,1.0*30
$GPRMC,053352.829,A,4531.512,N,12241.785,W,038.9,356.2,081218,000.0,W*60
$GPGGA,053353.829,4531.523,N,12241.786,W,1,12,1.0,0.0,M,0.0,M,,*76
$GPGSA,A,3,01,02,03,04,05,06,07,08,09,10,11,12,1.0,1.0,1.0*30
$GPRMC,053353.829,A,4531.523,N,12241.786,W,038.9,356.2,081218,000.0,W*60
$GPGGA,053354.829,4531.534,N,12241.786,W,1,12,1.0,0.0,M,0.0,M,,*77
$GPGSA,A,3,01,02,03,04,05,06,07,08,09,10,11,12,1.0,1.0,1.0*30
$GPRMC,053354.829,A,4531.534,N,12241.786,W,038.9,356.2,081218,000.0,W*61
$GPGGA,053355.829,4531.544,N,12241.787,W,1,12,1.0,0.0,M,0.0,M,,*70
$GPGSA,A,3,01,02,03,04,05,06,07,08,09,10,11,12,1.0,1.0,1.0*30
$GPRMC,053355.829,A,4531.544,N,12241.787,W,038.9,356.2,081218,000.0,W*66
$GPGGA,053356.829,4531.555,N,12241.788,W,1,12,1.0,0.0,M,0.0,M,,*7C
$GPGSA,A,3,01,02,03,04,05,06,07,08,09,10,11,12,1.0,1.0,1.0*30
$GPRMC,053356.829,A,4531.555,N,12241.788,W,038.9,356.2,081218,000.0,W*6A
$GPGGA,053357.829,4531.566,N,12241.789,W,1,12,1.0,0.0,M,0.0,M,,*7C
$GPGSA,A,3,01,02,03,04,05,06,07,08,09,10,11,12,1.0,1.0,1.0*30
$GPRMC,053357.829,A,4531.566,N,12241.789,W,038.9,356.2,081218,000.0,W*6A
$GPGGA,053358.829,4531.577,N,12241.789,W,1,12,1.0,0.0,M,0.0,M,,*73
$GPGSA,A,3,01,02,03,04,05,06,07,08,09,10,11,12,1.0,1.0,1.0*30
$GPRMC,053358.829,A,4531.577,N,12241.789,W,038.9,089.8,081218,000.0,W*6E
$GPGGA,053359.829,4531.577,N,12241.774,W,1,12,1.0,0.0,M,0.0,M,,*70
$GPGSA,A,3,01,02,03,04,05,06,07,08,09,10,11,12,1.0,1.0,1.0*30
$GPRMC,053359.829,A,4531.577,N,12241.774,W,038.9,089.8,081218,000.0,W*6D
$GPGGA,053400.829,4531.577,N,12241.758,W,1,12,1.0,0.0,M,0.0,M,,*75
$GPGSA,A,3,01,02,03,04,05,06,07,08,09,10,11,12,1.0,1.0,1.0*30
$GPRMC,053400.829,A,4531.577,N,12241.758,W,038.9,089.8,081218,000.0,W*68
$GPGGA,053401.829,4531.577,N,12241.743,W,1,12,1.0,0.0,M,0.0,M,,*7E
$GPGSA,A,3,01,02,03,04,05,06,07,08,09,10,11,12,1.0,1.0,1.0*30
$GPRMC,053401.829,A,4531.577,N,12241.743,W,038.9,089.8,081218,000.0,W*63
$GPGGA,053402.829,4531.577,N,12241.728,W,1,12,1.0,0.0,M,0.0,M,,*70
$GPGSA,A,3,01,02,03,04,05,06,07,08,09,10,11,12,1.0,1.0,1.0*30
$GPRMC,053402.829,A,4531.577,N,12241.728,W,038.9,089.8,081218,000.0,W*6D
$GPGGA,053403.829,4531.577,N,12241.712,W,1,12,1.0,0.0,M,0.0,M,,*78
$GPGSA,A,3,01,02,03,04,05,06,07,08,09,10,11,12,1.0,1.0,1.0*30
$GPRMC,053403.829,A,4531.577,N,12241.712,W,038.9,089.8,081218,000.0,W*65
$GPGGA,053404.829,4531.577,N,12241.697,W,1,12,1.0,0.0,M,0.0,M,,*73
$GPGSA,A,3,01,02,03,04,05,06,07,08,09,10,11,12,1.0,1.0,1.0*30
$GPRMC,053404.829,A,4531.577,N,12241.697,W,038.9,089.8,081218,000.0,W*6E
$GPGGA,053405.829,4531.577,N,12241.681,W,1,12,1.0,0.0,M,0.0,M,,*75
$GPGSA,A,3,01,02,03,04,05,06,07,08,09,10,11,12,1.0,1.0,1.0*30
$GPRMC,053405.829,A,4531.577,N,12241.681,W,038.9,089.8,081218,000.0,W*68
