$GPGGA,195029.465,4531.225,N,12240.334,W,1,12,1.0,0.0,M,0.0,M,,*7A
$GPGSA,A,3,01,02,03,04,05,06,07,08,09,10,11,12,1.0,1.0,1.0*30
$GPRMC,195029.465,A,4531.225,N,12240.334,W,038.9,029.0,111218,000.0,W*6D
$GPGGA,195030.465,4531.235,N,12240.329,W,1,12,1.0,0.0,M,0.0,M,,*7F
$GPGSA,A,3,01,02,03,04,05,06,07,08,09,10,11,12,1.0,1.0,1.0*30
$GPRMC,195030.465,A,4531.235,N,12240.329,W,038.9,029.0,111218,000.0,W*68
$GPGGA,195031.465,4531.245,N,12240.323,W,1,12,1.0,0.0,M,0.0,M,,*73
$GPGSA,A,3,01,02,03,04,05,06,07,08,09,10,11,12,1.0,1.0,1.0*30
$GPRMC,195031.465,A,4531.245,N,12240.323,W,038.9,029.0,111218,000.0,W*64
$GPGGA,195032.465,4531.255,N,12240.318,W,1,12,1.0,0.0,M,0.0,M,,*79
$GPGSA,A,3,01,02,03,04,05,06,07,08,09,10,11,12,1.0,1.0,1.0*30
$GPRMC,195032.465,A,4531.255,N,12240.318,W,038.9,029.0,111218,000.0,W*6E
$GPGGA,195033.465,4531.265,N,12240.312,W,1,12,1.0,0.0,M,0.0,M,,*71
$GPGSA,A,3,01,02,03,04,05,06,07,08,09,10,11,12,1.0,1.0,1.0*30
$GPRMC,195033.465,A,4531.265,N,12240.312,W,038.9,029.0,111218,000.0,W*66
$GPGGA,195034.465,4531.275,N,12240.307,W,1,12,1.0,0.0,M,0.0,M,,*73
$GPGSA,A,3,01,02,03,04,05,06,07,08,09,10,11,12,1.0,1.0,1.0*30
$GPRMC,195034.465,A,4531.275,N,12240.307,W,038.9,029.0,111218,000.0,W*64
$GPGGA,195035.465,4531.285,N,12240.301,W,1,12,1.0,0.0,M,0.0,M,,*7B
$GPGSA,A,3,01,02,03,04,05,06,07,08,09,10,11,12,1.0,1.0,1.0*30
$GPRMC,195035.465,A,4531.285,N,12240.301,W,038.9,029.0,111218,000.0,W*6C
$GPGGA,195036.465,4531.295,N,12240.295,W,1,12,1.0,0.0,M,0.0,M,,*75
$GPGSA,A,3,01,02,03,04,05,06,07,08,09,10,11,12,1.0,1.0,1.0*30
$GPRMC,195036.465,A,4531.295,N,12240.295,W,038.9,029.0,111218,000.0,W*62
$GPGGA,195037.465,4531.305,N,12240.290,W,1,12,1.0,0.0,M,0.0,M,,*79
$GPGSA,A,3,01,02,03,04,05,06,07,08,09,10,11,12,1.0,1.0,1.0*30
$GPRMC,195037.465,A,4531.305,N,12240.290,W,038.9,284.3,111218,000.0,W*68
$GPGGA,195038.465,4531.309,N,12240.304,W,1,12,1.0,0.0,M,0.0,M,,*76
$GPGSA,A,3,01,02,03,04,05,06,07,08,09,10,11,12,1.0,1.0,1.0*30
$GPRMC,195038.465,A,4531.309,N,12240.304,W,038.9,284.3,111218,000.0,W*67
$GPGGA,195039.465,4531.313,N,12240.319,W,1,12,1.0,0.0,M,0.0,M,,*70
$GPGSA,A,3,01,02,03,04,05,06,07,08,09,10,11,12,1.0,1.0,1.0*30
$GPRMC,195039.465,A,4531.313,N,12240.319,W,038.9,284.3,111218,000.0,W*61
$GPGGA,195040.465,4531.317,N,12240.333,W,1,12,1.0,0.0,M,0.0,M,,*72
$GPGSA,A,3,01,02,03,04,05,06,07,08,09,10,11,12,1.0,1.0,1.0*30
$GPRMC,195040.465,A,4531.317,N,12240.333,W,038.9,284.8,111218,000.0,W*68
$GPGGA,195041.465,4531.320,N,12240.348,W,1,12,1.0,0.0,M,0.0,M,,*7B
$GPGSA,A,3,01,02,03,04,05,06,07,08,09,10,11,12,1.0,1.0,1.0*30
$GPRMC,195041.465,A,4531.320,N,12240.348,W,038.9,284.8,111218,000.0,W*61
$GPGGA,195042.465,4531.324,N,12240.362,W,1,12,1.0,0.0,M,0.0,M,,*74
$GPGSA,A,3,01,02,03,04,05,06,07,08,09,10,11,12,1.0,1.0,1.0*30
$GPRMC,195042.465,A,4531.324,N,12240.362,W,038.9,284.8,111218,000.0,W*6E
$GPGGA,195043.465,4531.328,N,12240.377,W,1,12,1.0,0.0,M,0.0,M,,*7D
$GPGSA,A,3,01,02,03,04,05,06,07,08,09,10,11,12,1.0,1.0,1.0*30
$GPRMC,195043.465,A,4531.328,N,12240.377,W,038.9,284.8,111218,000.0,W*67
$GPGGA,195044.465,4531.332,N,12240.391,W,1,12,1.0,0.0,M,0.0,M,,*79
$GPGSA,A,3,01,02,03,04,05,06,07,08,09,10,11,12,1.0,1.0,1.0*30
$GPRMC,195044.465,A,4531.332,N,12240.391,W,038.9,284.8,111218,000.0,W*63
$GPGGA,195045.465,4531.335,N,12240.405,W,1,12,1.0,0.0,M,0.0,M,,*75
$GPGSA,A,3,01,02,03,04,05,06,07,08,09,10,11,12,1.0,1.0,1.0*30
$GPRMC,195045.465,A,4531.335,N,12240.405,W,038.9,028.3,111218,000.0,W*60
$GPGGA,195046.465,4531.346,N,12240.400,W,1,12,1.0,0.0,M,0.0,M,,*77
$GPGSA,A,3,01,02,03,04,05,06,07,08,09,10,11,12,1.0,1.0,1.0*30
$GPRMC,195046.465,A,4531.346,N,12240.400,W,038.9,354.9,111218,000.0,W*60
$GPGGA,195047.465,4531.356,N,12240.401,W,1,12,1.0,0.0,M,0.0,M,,*76
$GPGSA,A,3,01,02,03,04,05,06,07,08,09,10,11,12,1.0,1.0,1.0*30
$GPRMC,195047.465,A,4531.356,N,12240.401,W,038.9,354.9,111218,000.0,W*61
$GPGGA,195048.465,4531.367,N,12240.402,W,1,12,1.0,0.0,M,0.0,M,,*78
$GPGSA,A,3,01,02,03,04,05,06,07,08,09,10,11,12,1.0,1.0,1.0*30
$GPRMC,195048.465,A,4531.367,N,12240.402,W,038.9,354.9,111218,000.0,W*6F
$GPGGA,195049.465,4531.378,N,12240.403,W,1,12,1.0,0.0,M,0.0,M,,*76
$GPGSA,A,3,01,02,03,04,05,06,07,08,09,10,11,12,1.0,1.0,1.0*30
$GPRMC,195049.465,A,4531.378,N,12240.403,W,038.9,061.6,111218,000.0,W*6B
$GPGGA,195050.465,4531.384,N,12240.391,W,1,12,1.0,0.0,M,0.0,M,,*71
$GPGSA,A,3,01,02,03,04,05,06,07,08,09,10,11,12,1.0,1.0,1.0*30
$GPRMC,195050.465,A,4531.384,N,12240.391,W,038.9,090.2,111218,000.0,W*66
$GPGGA,195051.465,4531.384,N,12240.375,W,1,12,1.0,0.0,M,0.0,M,,*7A
$GPGSA,A,3,01,02,03,04,05,06,07,08,09,10,11,12,1.0,1.0,1.0*30
$GPRMC,195051.465,A,4531.384,N,12240.375,W,038.9,090.2,111218,000.0,W*6D
$GPGGA,195052.465,4531.384,N,12240.360,W,1,12,1.0,0.0,M,0.0,M,,*7D
$GPGSA,A,3,01,02,03,04,05,06,07,08,09,10,11,12,1.0,1.0,1.0*30
$GPRMC,195052.465,A,4531.384,N,12240.360,W,038.9,090.2,111218,000.0,W*6A
$GPGGA,195053.465,4531.384,N,12240.344,W,1,12,1.0,0.0,M,0.0,M,,*7A
$GPGSA,A,3,01,02,03,04,05,06,07,08,09,10,11,12,1.0,1.0,1.0*30
$GPRMC,195053.465,A,4531.384,N,12240.344,W,038.9,090.2,111218,000.0,W*6D
$GPGGA,195054.465,4531.384,N,12240.329,W,1,12,1.0,0.0,M,0.0,M,,*76
$GPGSA,A,3,01,02,03,04,05,06,07,08,09,10,11,12,1.0,1.0,1.0*30
$GPRMC,195054.465,A,4531.384,N,12240.329,W,038.9,090.2,111218,000.0,W*61
$GPGGA,195055.465,4531.384,N,12240.314,W,1,12,1.0,0.0,M,0.0,M,,*79
$GPGSA,A,3,01,02,03,04,05,06,07,08,09,10,11,12,1.0,1.0,1.0*30
$GPRMC,195055.465,A,4531.384,N,12240.314,W,038.9,080.0,111218,000.0,W*6D
$GPGGA,195056.465,4531.387,N,12240.299,W,1,12,1.0,0.0,M,0.0,M,,*7D
$GPGSA,A,3,01,02,03,04,05,06,07,08,09,10,11,12,1.0,1.0,1.0*30
$GPRMC,195056.465,A,4531.387,N,12240.299,W,038.9,091.0,111218,000.0,W*69
$GPGGA,195057.465,4531.387,N,12240.283,W,1,12,1.0,0.0,M,0.0,M,,*77
$GPGSA,A,3,01,02,03,04,05,06,07,08,09,10,11,12,1.0,1.0,1.0*30
$GPRMC,195057.465,A,4531.387,N,12240.283,W,038.9,091.0,111218,000.0,W*63
$GPGGA,195058.465,4531.386,N,12240.268,W,1,12,1.0,0.0,M,0.0,M,,*7C
$GPGSA,A,3,01,02,03,04,05,06,07,08,09,10,11,12,1.0,1.0,1.0*30
$GPRMC,195058.465,A,4531.386,N,12240.268,W,038.9,091.0,111218,000.0,W*68
$GPGGA,195059.465,4531.386,N,12240.252,W,1,12,1.0,0.0,M,0.0,M,,*74
$GPGSA,A,3,01,02,03,04,05,06,07,08,09,10,11,12,1.0,1.0,1.0*30
$GPRMC,195059.465,A,4531.386,N,12240.252,W,038.9,091.0,111218,000.0,W*60
$GPGGA,195100.465,4531.386,N,12240.237,W,1,12,1.0,0.0,M,0.0,M,,*7A
$GPGSA,A,3,01,02,03,04,05,06,07,08,09,10,11,12,1.0,1.0,1.0*30
$GPRMC,195100.465,A,4531.386,N,12240.237,W,038.9,091.0,111218,000.0,W*6E
$GPGGA,195101.465,4531.386,N,12240.222,W,1,12,1.0,0.0,M,0.0,M,,*7F
$GPGSA,A,3,01,02,03,04,05,06,07,08,09,10,11,12,1.0,1.0,1.0*30
$GPRMC,195101.465,A,4531.386,N,12240.222,W,038.9,091.0,111218,000.0,W*6B
$GPGGA,195102.465,4531.385,N,12240.206,W,1,12,1.0,0.0,M,0.0,M,,*79
$GPGSA,A,3,01,02,03,04,05,06,07,08,09,10,11,12,1.0,1.0,1.0*30
$GPRMC,195102.465,A,4531.385,N,12240.206,W,038.9,091.0,111218,000.0,W*6D
$GPGGA,195103.465,4531.385,N,12240.191,W,1,12,1.0,0.0,M,0.0,M,,*75
$GPGSA,A,3,01,02,03,04,05,06,07,08,09,10,11,12,1.0,1.0,1.0*30
$GPRMC,195103.465,A,4531.385,N,12240.191,W,038.9,091.0,111218,000.0,W*61
$GPGGA,195104.465,4531.385,N,12240.175,W,1,12,1.0,0.0,M,0.0,M,,*78
$GPGSA,A,3,01,02,03,04,05,06,07,08,09,10,11,12,1.0,1.0,1.0*30
$GPRMC,195104.465,A,4531.385,N,12240.175,W,038.9,091.0,111218,000.0,W*6C
$GPGGA,195105.465,4531.385,N,12240.160,W,1,12,1.0,0.0,M,0.0,M,,*7D
$GPGSA,A,3,01,02,03,04,05,06,07,08,09,10,11,12,1.0,1.0,1.0*30
$GPRMC,195105.465,A,4531.385,N,12240.160,W,038.9,091.0,111218,000.0,W*69
$GPGGA,195106.465,4531.384,N,12240.145,W,1,12,1.0,0.0,M,0.0,M,,*78
$GPGSA,A,3,01,02,03,04,05,06,07,08,09,10,11,12,1.0,1.0,1.0*30
$GPRMC,195106.465,A,4531.384,N,12240.145,W,038.9,091.0,111218,000.0,W*6C
$GPGGA,195107.465,4531.384,N,12240.129,W,1,12,1.0,0.0,M,0.0,M,,*73
$GPGSA,A,3,01,02,03,04,05,06,07,08,09,10,11,12,1.0,1.0,1.0*30
$GPRMC,195107.465,A,4531.384,N,12240.129,W,038.9,091.0,111218,000.0,W*67
$GPGGA,195108.465,4531.384,N,12240.114,W,1,12,1.0,0.0,M,0.0,M,,*72
$GPGSA,A,3,01,02,03,04,05,06,07,08,09,10,11,12,1.0,1.0,1.0*30
$GPRMC,195108.465,A,4531.384,N,12240.114,W,038.9,091.0,111218,000.0,W*66
$GPGGA,195109.465,4531.384,N,12240.098,W,1,12,1.0,0.0,M,0.0,M,,*76
$GPGSA,A,3,01,02,03,04,05,06,07,08,09,10,11,12,1.0,1.0,1.0*30
$GPRMC,195109.465,A,4531.384,N,12240.098,W,038.9,091.0,111218,000.0,W*62
$GPGGA,195110.465,4531.383,N,12240.083,W,1,12,1.0,0.0,M,0.0,M,,*73
$GPGSA,A,3,01,02,03,04,05,06,07,08,09,10,11,12,1.0,1.0,1.0*30
$GPRMC,195110.465,A,4531.383,N,12240.083,W,038.9,091.0,111218,000.0,W*67
$GPGGA,195111.465,4531.383,N,12240.068,W,1,12,1.0,0.0,M,0.0,M,,*77
$GPGSA,A,3,01,02,03,04,05,06,07,08,09,10,11,12,1.0,1.0,1.0*30
$GPRMC,195111.465,A,4531.383,N,12240.068,W,038.9,091.0,111218,000.0,W*63
$GPGGA,195112.465,4531.383,N,12240.052,W,1,12,1.0,0.0,M,0.0,M,,*7D
$GPGSA,A,3,01,02,03,04,05,06,07,08,09,10,11,12,1.0,1.0,1.0*30
$GPRMC,195112.465,A,4531.383,N,12240.052,W,038.9,091.0,111218,000.0,W*69
$GPGGA,195113.465,4531.383,N,12240.037,W,1,12,1.0,0.0,M,0.0,M,,*7F
$GPGSA,A,3,01,02,03,04,05,06,07,08,09,10,11,12,1.0,1.0,1.0*30
$GPRMC,195113.465,A,4531.383,N,12240.037,W,038.9,091.0,111218,000.0,W*6B
$GPGGA,195114.465,4531.382,N,12240.021,W,1,12,1.0,0.0,M,0.0,M,,*7E
$GPGSA,A,3,01,02,03,04,05,06,07,08,09,10,11,12,1.0,1.0,1.0*30
$GPRMC,195114.465,A,4531.382,N,12240.021,W,038.9,091.0,111218,000.0,W*6A
$GPGGA,195115.465,4531.382,N,12240.006,W,1,12,1.0,0.0,M,0.0,M,,*7A
$GPGSA,A,3,01,02,03,04,05,06,07,08,09,10,11,12,1.0,1.0,1.0*30
$GPRMC,195115.465,A,4531.382,N,12240.006,W,038.9,091.0,111218,000.0,W*6E
$GPGGA,195116.465,4531.382,N,12239.991,W,1,12,1.0,0.0,M,0.0,M,,*70
$GPGSA,A,3,01,02,03,04,05,06,07,08,09,10,11,12,1.0,1.0,1.0*30
$GPRMC,195116.465,A,4531.382,N,12239.991,W,038.9,091.0,111218,000.0,W*64
$GPGGA,195117.465,4531.382,N,12239.975,W,1,12,1.0,0.0,M,0.0,M,,*7B
$GPGSA,A,3,01,02,03,04,05,06,07,08,09,10,11,12,1.0,1.0,1.0*30
$GPRMC,195117.465,A,4531.382,N,12239.975,W,038.9,091.0,111218,000.0,W*6F
$GPGGA,195118.465,4531.381,N,12239.960,W,1,12,1.0,0.0,M,0.0,M,,*73
$GPGSA,A,3,01,02,03,04,05,06,07,08,09,10,11,12,1.0,1.0,1.0*30
$GPRMC,195118.465,A,4531.381,N,12239.960,W,038.9,091.0,111218,000.0,W*67
$GPGGA,195119.465,4531.381,N,12239.944,W,1,12,1.0,0.0,M,0.0,M,,*74
$GPGSA,A,3,01,02,03,04,05,06,07,08,09,10,11,12,1.0,1.0,1.0*30
$GPRMC,195119.465,A,4531.381,N,12239.944,W,038.9,091.0,111218,000.0,W*60
$GPGGA,195120.465,4531.381,N,12239.929,W,1,12,1.0,0.0,M,0.0,M,,*75
$GPGSA,A,3,01,02,03,04,05,06,07,08,09,10,11,12,1.0,1.0,1.0*30
$GPRMC,195120.465,A,4531.381,N,12239.929,W,038.9,091.0,111218,000.0,W*61
$GPGGA,195121.465,4531.380,N,12239.914,W,1,12,1.0,0.0,M,0.0,M,,*7B
$GPGSA,A,3,01,02,03,04,05,06,07,08,09,10,11,12,1.0,1.0,1.0*30
$GPRMC,195121.465,A,4531.380,N,12239.914,W,038.9,091.0,111218,000.0,W*6F
$GPGGA,195122.465,4531.380,N,12239.898,W,1,12,1.0,0.0,M,0.0,M,,*7D
$GPGSA,A,3,01,02,03,04,05,06,07,08,09,10,11,12,1.0,1.0,1.0*30
$GPRMC,195122.465,A,4531.380,N,12239.898,W,038.9,091.0,111218,000.0,W*69
$GPGGA,195123.465,4531.380,N,12239.883,W,1,12,1.0,0.0,M,0.0,M,,*76
$GPGSA,A,3,01,02,03,04,05,06,07,08,09,10,11,12,1.0,1.0,1.0*30
$GPRMC,195123.465,A,4531.380,N,12239.883,W,038.9,091.0,111218,000.0,W*62
$GPGGA,195124.465,4531.380,N,12239.868,W,1,12,1.0,0.0,M,0.0,M,,*74
$GPGSA,A,3,01,02,03,04,05,06,07,08,09,10,11,12,1.0,1.0,1.0*30
$GPRMC,195124.465,A,4531.380,N,12239.868,W,038.9,091.0,111218,000.0,W*60
$GPGGA,195125.465,4531.379,N,12239.852,W,1,12,1.0,0.0,M,0.0,M,,*7A
$GPGSA,A,3,01,02,03,04,05,06,07,08,09,10,11,12,1.0,1.0,1.0*30
$GPRMC,195125.465,A,4531.379,N,12239.852,W,038.9,091.0,111218,000.0,W*6E
$GPGGA,195126.465,4531.379,N,12239.837,W,1,12,1.0,0.0,M,0.0,M,,*7A
$GPGSA,A,3,01,02,03,04,05,06,07,08,09,10,11,12,1.0,1.0,1.0*30
$GPRMC,195126.465,A,4531.379,N,12239.837,W,038.9,091.0,111218,000.0,W*6E
$GPGGA,195127.465,4531.379,N,12239.821,W,1,12,1.0,0.0,M,0.0,M,,*7C
$GPGSA,A,3,01,02,03,04,05,06,07,08,09,10,11,12,1.0,1.0,1.0*30
$GPRMC,195127.465,A,4531.379,N,12239.821,W,038.9,091.0,111218,000.0,W*68
$GPGGA,195128.465,4531.379,N,12239.806,W,1,12,1.0,0.0,M,0.0,M,,*76
$GPGSA,A,3,01,02,03,04,05,06,07,08,09,10,11,12,1.0,1.0,1.0*30
$GPRMC,195128.465,A,4531.379,N,12239.806,W,038.9,091.0,111218,000.0,W*62
$GPGGA,195129.465,4531.378,N,12239.791,W,1,12,1.0,0.0,M,0.0,M,,*77
$GPGSA,A,3,01,02,03,04,05,06,07,08,09,10,11,12,1.0,1.0,1.0*30
$GPRMC,195129.465,A,4531.378,N,12239.791,W,038.9,091.0,111218,000.0,W*63
$GPGGA,195130.465,4531.378,N,12239.775,W,1,12,1.0,0.0,M,0.0,M,,*75
$GPGSA,A,3,01,02,03,04,05,06,07,08,09,10,11,12,1.0,1.0,1.0*30
$GPRMC,195130.465,A,4531.378,N,12239.775,W,038.9,091.0,111218,000.0,W*61
$GPGGA,195131.465,4531.378,N,12239.760,W,1,12,1.0,0.0,M,0.0,M,,*70
$GPGSA,A,3,01,02,03,04,05,06,07,08,09,10,11,12,1.0,1.0,1.0*30
$GPRMC,195131.465,A,4531.378,N,12239.760,W,038.9,189.8,111218,000.0,W*64
$GPGGA,195132.465,4531.367,N,12239.762,W,1,12,1.0,0.0,M,0.0,M,,*7F
$GPGSA,A,3,01,02,03,04,05,06,07,08,09,10,11,12,1.0,1.0,1.0*30
$GPRMC,195132.465,A,4531.367,N,12239.762,W,038.9,183.9,111218,000.0,W*60
$GPGGA,195133.465,4531.356,N,12239.762,W,1,12,1.0,0.0,M,0.0,M,,*7C
$GPGSA,A,3,01,02,03,04,05,06,07,08,09,10,11,12,1.0,1.0,1.0*30
$GPRMC,195133.465,A,4531.356,N,12239.762,W,038.9,183.9,111218,000.0,W*63
$GPGGA,195134.465,4531.346,N,12239.763,W,1,12,1.0,0.0,M,0.0,M,,*7B
$GPGSA,A,3,01,02,03,04,05,06,07,08,09,10,11,12,1.0,1.0,1.0*30
$GPRMC,195134.465,A,4531.346,N,12239.763,W,038.9,183.9,111218,000.0,W*64
$GPGGA,195135.465,4531.335,N,12239.764,W,1,12,1.0,0.0,M,0.0,M,,*79
$GPGSA,A,3,01,02,03,04,05,06,07,08,09,10,11,12,1.0,1.0,1.0*30
$GPRMC,195135.465,A,4531.335,N,12239.764,W,038.9,178.9,111218,000.0,W*62
$GPGGA,195136.465,4531.324,N,12239.764,W,1,12,1.0,0.0,M,0.0,M,,*7A
$GPGSA,A,3,01,02,03,04,05,06,07,08,09,10,11,12,1.0,1.0,1.0*30
$GPRMC,195136.465,A,4531.324,N,12239.764,W,038.9,178.9,111218,000.0,W*61
$GPGGA,195137.465,4531.313,N,12239.763,W,1,12,1.0,0.0,M,0.0,M,,*78
$GPGSA,A,3,01,02,03,04,05,06,07,08,09,10,11,12,1.0,1.0,1.0*30
$GPRMC,195137.465,A,4531.313,N,12239.763,W,038.9,178.9,111218,000.0,W*63
$GPGGA,195138.465,4531.303,N,12239.763,W,1,12,1.0,0.0,M,0.0,M,,*76
$GPGSA,A,3,01,02,03,04,05,06,07,08,09,10,11,12,1.0,1.0,1.0*30
$GPRMC,195138.465,A,4531.303,N,12239.763,W,038.9,178.9,111218,000.0,W*6D
$GPGGA,195139.465,4531.292,N,12239.763,W,1,12,1.0,0.0,M,0.0,M,,*7E
$GPGSA,A,3,01,02,03,04,05,06,07,08,09,10,11,12,1.0,1.0,1.0*30
$GPRMC,195139.465,A,4531.292,N,12239.763,W,038.9,268.9,111218,000.0,W*67
$GPGGA,195140.465,4531.291,N,12239.778,W,1,12,1.0,0.0,M,0.0,M,,*79
$GPGSA,A,3,01,02,03,04,05,06,07,08,09,10,11,12,1.0,1.0,1.0*30
$GPRMC,195140.465,A,4531.291,N,12239.778,W,038.9,268.9,111218,000.0,W*60
$GPGGA,195141.465,4531.291,N,12239.794,W,1,12,1.0,0.0,M,0.0,M,,*7A
$GPGSA,A,3,01,02,03,04,05,06,07,08,09,10,11,12,1.0,1.0,1.0*30
$GPRMC,195141.465,A,4531.291,N,12239.794,W,038.9,268.9,111218,000.0,W*63
$GPGGA,195142.465,4531.291,N,12239.809,W,1,12,1.0,0.0,M,0.0,M,,*72
$GPGSA,A,3,01,02,03,04,05,06,07,08,09,10,11,12,1.0,1.0,1.0*30
$GPRMC,195142.465,A,4531.291,N,12239.809,W,038.9,268.9,111218,000.0,W*6B
$GPGGA,195143.465,4531.290,N,12239.825,W,1,12,1.0,0.0,M,0.0,M,,*7C
$GPGSA,A,3,01,02,03,04,05,06,07,08,09,10,11,12,1.0,1.0,1.0*30
$GPRMC,195143.465,A,4531.290,N,12239.825,W,038.9,181.5,111218,000.0,W*6D
$GPGGA,195144.465,4531.280,N,12239.825,W,1,12,1.0,0.0,M,0.0,M,,*7A
$GPGSA,A,3,01,02,03,04,05,06,07,08,09,10,11,12,1.0,1.0,1.0*30
$GPRMC,195144.465,A,4531.280,N,12239.825,W,038.9,181.5,111218,000.0,W*6B
$GPGGA,195145.465,4531.269,N,12239.825,W,1,12,1.0,0.0,M,0.0,M,,*7C
$GPGSA,A,3,01,02,03,04,05,06,07,08,09,10,11,12,1.0,1.0,1.0*30
$GPRMC,195145.465,A,4531.269,N,12239.825,W,038.9,181.5,111218,000.0,W*6D
$GPGGA,195146.465,4531.258,N,12239.825,W,1,12,1.0,0.0,M,0.0,M,,*7D
$GPGSA,A,3,01,02,03,04,05,06,07,08,09,10,11,12,1.0,1.0,1.0*30
$GPRMC,195146.465,A,4531.258,N,12239.825,W,038.9,181.5,111218,000.0,W*6C
$GPGGA,195147.465,4531.247,N,12239.826,W,1,12,1.0,0.0,M,0.0,M,,*71
$GPGSA,A,3,01,02,03,04,05,06,07,08,09,10,11,12,1.0,1.0,1.0*30
$GPRMC,195147.465,A,4531.247,N,12239.826,W,038.9,181.5,111218,000.0,W*60
$GPGGA,195148.465,4531.237,N,12239.826,W,1,12,1.0,0.0,M,0.0,M,,*79
$GPGSA,A,3,01,02,03,04,05,06,07,08,09,10,11,12,1.0,1.0,1.0*30
$GPRMC,195148.465,A,4531.237,N,12239.826,W,038.9,181.5,111218,000.0,W*68
$GPGGA,195149.465,4531.226,N,12239.826,W,1,12,1.0,0.0,M,0.0,M,,*78
$GPGSA,A,3,01,02,03,04,05,06,07,08,09,10,11,12,1.0,1.0,1.0*30
$GPRMC,195149.465,A,4531.226,N,12239.826,W,038.9,181.5,111218,000.0,W*69
$GPGGA,195150.465,4531.215,N,12239.826,W,1,12,1.0,0.0,M,0.0,M,,*70
$GPGSA,A,3,01,02,03,04,05,06,07,08,09,10,11,12,1.0,1.0,1.0*30
$GPRMC,195150.465,A,4531.215,N,12239.826,W,038.9,181.5,111218,000.0,W*61
$GPGGA,195151.465,4531.204,N,12239.827,W,1,12,1.0,0.0,M,0.0,M,,*70
$GPGSA,A,3,01,02,03,04,05,06,07,08,09,10,11,12,1.0,1.0,1.0*30
$GPRMC,195151.465,A,4531.204,N,12239.827,W,038.9,181.5,111218,000.0,W*61
$GPGGA,195152.465,4531.193,N,12239.827,W,1,12,1.0,0.0,M,0.0,M,,*7E
$GPGSA,A,3,01,02,03,04,05,06,07,08,09,10,11,12,1.0,1.0,1.0*30
$GPRMC,195152.465,A,4531.193,N,12239.827,W,038.9,181.5,111218,000.0,W*6F
$GPGGA,195153.465,4531.183,N,12239.827,W,1,12,1.0,0.0,M,0.0,M,,*7E
$GPGSA,A,3,01,02,03,04,05,06,07,08,09,10,11,12,1.0,1.0,1.0*30
$GPRMC,195153.465,A,4531.183,N,12239.827,W,038.9,181.5,111218,000.0,W*6F
$GPGGA,195154.465,4531.172,N,12239.828,W,1,12,1.0,0.0,M,0.0,M,,*78
$GPGSA,A,3,01,02,03,04,05,06,07,08,09,10,11,12,1.0,1.0,1.0*30
$GPRMC,195154.465,A,4531.172,N,12239.828,W,038.9,181.5,111218,000.0,W*69
$GPGGA,195155.465,4531.161,N,12239.828,W,1,12,1.0,0.0,M,0.0,M,,*7B
$GPGSA,A,3,01,02,03,04,05,06,07,08,09,10,11,12,1.0,1.0,1.0*30
$GPRMC,195155.465,A,4531.161,N,12239.828,W,038.9,270.9,111218,000.0,W*6B
$GPGGA,195156.465,4531.161,N,12239.843,W,1,12,1.0,0.0,M,0.0,M,,*75
$GPGSA,A,3,01,02,03,04,05,06,07,08,09,10,11,12,1.0,1.0,1.0*30
$GPRMC,195156.465,A,4531.161,N,12239.843,W,038.9,270.9,111218,000.0,W*65
$GPGGA,195157.465,4531.162,N,12239.859,W,1,12,1.0,0.0,M,0.0,M,,*7C
$GPGSA,A,3,01,02,03,04,05,06,07,08,09,10,11,12,1.0,1.0,1.0*30
$GPRMC,195157.465,A,4531.162,N,12239.859,W,038.9,270.9,111218,000.0,W*6C
$GPGGA,195158.465,4531.162,N,12239.874,W,1,12,1.0,0.0,M,0.0,M,,*7C
$GPGSA,A,3,01,02,03,04,05,06,07,08,09,10,11,12,1.0,1.0,1.0*30
$GPRMC,195158.465,A,4531.162,N,12239.874,W,038.9,270.9,111218,000.0,W*6C
$GPGGA,195159.465,4531.162,N,12239.889,W,1,12,1.0,0.0,M,0.0,M,,*7F
$GPGSA,A,3,01,02,03,04,05,06,07,08,09,10,11,12,1.0,1.0,1.0*30
$GPRMC,195159.465,A,4531.162,N,12239.889,W,038.9,270.9,111218,000.0,W*6F
$GPGGA,195200.465,4531.162,N,12239.905,W,1,12,1.0,0.0,M,0.0,M,,*75
$GPGSA,A,3,01,02,03,04,05,06,07,08,09,10,11,12,1.0,1.0,1.0*30
$GPRMC,195200.465,A,4531.162,N,12239.905,W,038.9,265.4,111218,000.0,W*6C
$GPGGA,195201.465,4531.161,N,12239.920,W,1,12,1.0,0.0,M,0.0,M,,*70
$GPGSA,A,3,01,02,03,04,05,06,07,08,09,10,11,12,1.0,1.0,1.0*30
$GPRMC,195201.465,A,4531.161,N,12239.920,W,038.9,230.0,111218,000.0,W*6D
$GPGGA,195202.465,4531.153,N,12239.930,W,1,12,1.0,0.0,M,0.0,M,,*73
$GPGSA,A,3,01,02,03,04,05,06,07,08,09,10,11,12,1.0,1.0,1.0*30
$GPRMC,195202.465,A,4531.153,N,12239.930,W,038.9,212.2,111218,000.0,W*6C
$GPGGA,195203.465,4531.143,N,12239.936,W,1,12,1.0,0.0,M,0.0,M,,*75
$GPGSA,A,3,01,02,03,04,05,06,07,08,09,10,11,12,1.0,1.0,1.0*30
$GPRMC,195203.465,A,4531.143,N,12239.936,W,038.9,212.2,111218,000.0,W*6A
$GPGGA,195204.465,4531.133,N,12239.942,W,1,12,1.0,0.0,M,0.0,M,,*76
$GPGSA,A,3,01,02,03,04,05,06,07,08,09,10,11,12,1.0,1.0,1.0*30
$GPRMC,195204.465,A,4531.133,N,12239.942,W,038.9,196.7,111218,000.0,W*63
$GPGGA,195205.465,4531.122,N,12239.946,W,1,12,1.0,0.0,M,0.0,M,,*73
$GPGSA,A,3,01,02,03,04,05,06,07,08,09,10,11,12,1.0,1.0,1.0*30
$GPRMC,195205.465,A,4531.122,N,12239.946,W,038.9,184.3,111218,000.0,W*61
$GPGGA,195206.465,4531.112,N,12239.946,W,1,12,1.0,0.0,M,0.0,M,,*73
$GPGSA,A,3,01,02,03,04,05,06,07,08,09,10,11,12,1.0,1.0,1.0*30
$GPRMC,195206.465,A,4531.112,N,12239.946,W,038.9,184.3,111218,000.0,W*61
$GPGGA,195207.465,4531.101,N,12239.947,W,1,12,1.0,0.0,M,0.0,M,,*71
$GPGSA,A,3,01,02,03,04,05,06,07,08,09,10,11,12,1.0,1.0,1.0*30
$GPRMC,195207.465,A,4531.101,N,12239.947,W,038.9,181.0,111218,000.0,W*65
$GPGGA,195208.465,4531.090,N,12239.947,W,1,12,1.0,0.0,M,0.0,M,,*77
$GPGSA,A,3,01,02,03,04,05,06,07,08,09,10,11,12,1.0,1.0,1.0*30
$GPRMC,195208.465,A,4531.090,N,12239.947,W,038.9,181.4,111218,000.0,W*67
$GPGGA,195209.465,4531.079,N,12239.948,W,1,12,1.0,0.0,M,0.0,M,,*7E
$GPGSA,A,3,01,02,03,04,05,06,07,08,09,10,11,12,1.0,1.0,1.0*30
$GPRMC,195209.465,A,4531.079,N,12239.948,W,038.9,181.4,111218,000.0,W*6E
$GPGGA,195210.465,4531.069,N,12239.948,W,1,12,1.0,0.0,M,0.0,M,,*77
$GPGSA,A,3,01,02,03,04,05,06,07,08,09,10,11,12,1.0,1.0,1.0*30
$GPRMC,195210.465,A,4531.069,N,12239.948,W,038.9,181.4,111218,000.0,W*67
$GPGGA,195211.465,4531.058,N,12239.948,W,1,12,1.0,0.0,M,0.0,M,,*74
$GPGSA,A,3,01,02,03,04,05,06,07,08,09,10,11,12,1.0,1.0,1.0*30
$GPRMC,195211.465,A,4531.058,N,12239.948,W,038.9,181.4,111218,000.0,W*64
$GPGGA,195212.465,4531.047,N,12239.948,W,1,12,1.0,0.0,M,0.0,M,,*79
$GPGSA,A,3,01,02,03,04,05,06,07,08,09,10,11,12,1.0,1.0,1.0*30
$GPRMC,195212.465,A,4531.047,N,12239.948,W,038.9,181.4,111218,000.0,W*69
$GPGGA,195213.465,4531.036,N,12239.949,W,1,12,1.0,0.0,M,0.0,M,,*7F
$GPGSA,A,3,01,02,03,04,05,06,07,08,09,10,11,12,1.0,1.0,1.0*30
$GPRMC,195213.465,A,4531.036,N,12239.949,W,038.9,267.4,111218,000.0,W*64
$GPGGA,195214.465,4531.035,N,12239.964,W,1,12,1.0,0.0,M,0.0,M,,*74
$GPGSA,A,3,01,02,03,04,05,06,07,08,09,10,11,12,1.0,1.0,1.0*30
$GPRMC,195214.465,A,4531.035,N,12239.964,W,038.9,267.4,111218,000.0,W*6F
$GPGGA,195215.465,4531.035,N,12239.979,W,1,12,1.0,0.0,M,0.0,M,,*79
$GPGSA,A,3,01,02,03,04,05,06,07,08,09,10,11,12,1.0,1.0,1.0*30
$GPRMC,195215.465,A,4531.035,N,12239.979,W,038.9,267.4,111218,000.0,W*62
$GPGGA,195216.465,4531.034,N,12239.995,W,1,12,1.0,0.0,M,0.0,M,,*79
$GPGSA,A,3,01,02,03,04,05,06,07,08,09,10,11,12,1.0,1.0,1.0*30
$GPRMC,195216.465,A,4531.034,N,12239.995,W,038.9,267.4,111218,000.0,W*62
$GPGGA,195217.465,4531.033,N,12240.010,W,1,12,1.0,0.0,M,0.0,M,,*75
$GPGSA,A,3,01,02,03,04,05,06,07,08,09,10,11,12,1.0,1.0,1.0*30
$GPRMC,195217.465,A,4531.033,N,12240.010,W,038.9,276.7,111218,000.0,W*6D
$GPGGA,195218.465,4531.035,N,12240.025,W,1,12,1.0,0.0,M,0.0,M,,*7A
$GPGSA,A,3,01,02,03,04,05,06,07,08,09,10,11,12,1.0,1.0,1.0*30
$GPRMC,195218.465,A,4531.035,N,12240.025,W,038.9,276.7,111218,000.0,W*62
$GPGGA,195219.465,4531.037,N,12240.041,W,1,12,1.0,0.0,M,0.0,M,,*7B
$GPGSA,A,3,01,02,03,04,05,06,07,08,09,10,11,12,1.0,1.0,1.0*30
$GPRMC,195219.465,A,4531.037,N,12240.041,W,038.9,281.2,111218,000.0,W*6E
$GPGGA,195220.465,4531.040,N,12240.055,W,1,12,1.0,0.0,M,0.0,M,,*74
$GPGSA,A,3,01,02,03,04,05,06,07,08,09,10,11,12,1.0,1.0,1.0*30
$GPRMC,195220.465,A,4531.040,N,12240.055,W,038.9,281.2,111218,000.0,W*61
$GPGGA,195221.465,4531.043,N,12240.070,W,1,12,1.0,0.0,M,0.0,M,,*71
$GPGSA,A,3,01,02,03,04,05,06,07,08,09,10,11,12,1.0,1.0,1.0*30
$GPRMC,195221.465,A,4531.043,N,12240.070,W,038.9,283.5,111218,000.0,W*61
$GPGGA,195222.465,4531.046,N,12240.085,W,1,12,1.0,0.0,M,0.0,M,,*7D
$GPGSA,A,3,01,02,03,04,05,06,07,08,09,10,11,12,1.0,1.0,1.0*30
$GPRMC,195222.465,A,4531.046,N,12240.085,W,038.9,283.5,111218,000.0,W*6D
$GPGGA,195223.465,4531.050,N,12240.099,W,1,12,1.0,0.0,M,0.0,M,,*76
$GPGSA,A,3,01,02,03,04,05,06,07,08,09,10,11,12,1.0,1.0,1.0*30
$GPRMC,195223.465,A,4531.050,N,12240.099,W,038.9,283.5,111218,000.0,W*66
$GPGGA,195224.465,4531.053,N,12240.114,W,1,12,1.0,0.0,M,0.0,M,,*76
$GPGSA,A,3,01,02,03,04,05,06,07,08,09,10,11,12,1.0,1.0,1.0*30
$GPRMC,195224.465,A,4531.053,N,12240.114,W,038.9,283.5,111218,000.0,W*66
$GPGGA,195225.465,4531.057,N,12240.129,W,1,12,1.0,0.0,M,0.0,M,,*7D
$GPGSA,A,3,01,02,03,04,05,06,07,08,09,10,11,12,1.0,1.0,1.0*30
$GPRMC,195225.465,A,4531.057,N,12240.129,W,038.9,284.8,111218,000.0,W*67
$GPGGA,195226.465,4531.061,N,12240.143,W,1,12,1.0,0.0,M,0.0,M,,*77
$GPGSA,A,3,01,02,03,04,05,06,07,08,09,10,11,12,1.0,1.0,1.0*30
$GPRMC,195226.465,A,4531.061,N,12240.143,W,038.9,284.8,111218,000.0,W*6D
$GPGGA,195227.465,4531.064,N,12240.157,W,1,12,1.0,0.0,M,0.0,M,,*76
$GPGSA,A,3,01,02,03,04,05,06,07,08,09,10,11,12,1.0,1.0,1.0*30
$GPRMC,195227.465,A,4531.064,N,12240.157,W,038.9,284.8,111218,000.0,W*6C
$GPGGA,195228.465,4531.068,N,12240.172,W,1,12,1.0,0.0,M,0.0,M,,*72
$GPGSA,A,3,01,02,03,04,05,06,07,08,09,10,11,12,1.0,1.0,1.0*30
$GPRMC,195228.465,A,4531.068,N,12240.172,W,038.9,284.8,111218,000.0,W*68
$GPGGA,195229.465,4531.072,N,12240.186,W,1,12,1.0,0.0,M,0.0,M,,*73
$GPGSA,A,3,01,02,03,04,05,06,07,08,09,10,11,12,1.0,1.0,1.0*30
$GPRMC,195229.465,A,4531.072,N,12240.186,W,038.9,284.8,111218,000.0,W*69
$GPGGA,195230.465,4531.076,N,12240.201,W,1,12,1.0,0.0,M,0.0,M,,*73
$GPGSA,A,3,01,02,03,04,05,06,07,08,09,10,11,12,1.0,1.0,1.0*30
$GPRMC,195230.465,A,4531.076,N,12240.201,W,038.9,284.8,111218,000.0,W*69
$GPGGA,195231.465,4531.080,N,12240.215,W,1,12,1.0,0.0,M,0.0,M,,*7E
$GPGSA,A,3,01,02,03,04,05,06,07,08,09,10,11,12,1.0,1.0,1.0*30
$GPRMC,195231.465,A,4531.080,N,12240.215,W,038.9,284.8,111218,000.0,W*64
$GPGGA,195232.465,4531.083,N,12240.229,W,1,12,1.0,0.0,M,0.0,M,,*71
$GPGSA,A,3,01,02,03,04,05,06,07,08,09,10,11,12,1.0,1.0,1.0*30
$GPRMC,195232.465,A,4531.083,N,12240.229,W,038.9,284.8,111218,000.0,W*6B
$GPGGA,195233.465,4531.087,N,12240.244,W,1,12,1.0,0.0,M,0.0,M,,*7F
$GPGSA,A,3,01,02,03,04,05,06,07,08,09,10,11,12,1.0,1.0,1.0*30
$GPRMC,195233.465,A,4531.087,N,12240.244,W,038.9,284.8,111218,000.0,W*65
$GPGGA,195234.465,4531.091,N,12240.258,W,1,12,1.0,0.0,M,0.0,M,,*72
$GPGSA,A,3,01,02,03,04,05,06,07,08,09,10,11,12,1.0,1.0,1.0*30
$GPRMC,195234.465,A,4531.091,N,12240.258,W,038.9,286.5,111218,000.0,W*67
$GPGGA,195235.465,4531.095,N,12240.273,W,1,12,1.0,0.0,M,0.0,M,,*7E
$GPGSA,A,3,01,02,03,04,05,06,07,08,09,10,11,12,1.0,1.0,1.0*30
$GPRMC,195235.465,A,4531.095,N,12240.273,W,038.9,286.5,111218,000.0,W*6B
$GPGGA,195236.465,4531.099,N,12240.287,W,1,12,1.0,0.0,M,0.0,M,,*7A
$GPGSA,A,3,01,02,03,04,05,06,07,08,09,10,11,12,1.0,1.0,1.0*30
$GPRMC,195236.465,A,4531.099,N,12240.287,W,038.9,292.6,111218,000.0,W*69
$GPGGA,195237.465,4531.105,N,12240.300,W,1,12,1.0,0.0,M,0.0,M,,*71
$GPGSA,A,3,01,02,03,04,05,06,07,08,09,10,11,12,1.0,1.0,1.0*30
$GPRMC,195237.465,A,4531.105,N,12240.300,W,038.9,292.6,111218,000.0,W*62
$GPGGA,195238.465,4531.110,N,12240.313,W,1,12,1.0,0.0,M,0.0,M,,*78
$GPGSA,A,3,01,02,03,04,05,06,07,08,09,10,11,12,1.0,1.0,1.0*30
$GPRMC,195238.465,A,4531.110,N,12240.313,W,038.9,292.6,111218,000.0,W*6B
$GPGGA,195239.465,4531.116,N,12240.326,W,1,12,1.0,0.0,M,0.0,M,,*79
$GPGSA,A,3,01,02,03,04,05,06,07,08,09,10,11,12,1.0,1.0,1.0*30
$GPRMC,195239.465,A,4531.116,N,12240.326,W,038.9,287.6,111218,000.0,W*6E
$GPGGA,195240.465,4531.120,N,12240.341,W,1,12,1.0,0.0,M,0.0,M,,*73
$GPGSA,A,3,01,02,03,04,05,06,07,08,09,10,11,12,1.0,1.0,1.0*30
$GPRMC,195240.465,A,4531.120,N,12240.341,W,038.9,287.6,111218,000.0,W*64
$GPGGA,195241.465,4531.125,N,12240.355,W,1,12,1.0,0.0,M,0.0,M,,*72
$GPGSA,A,3,01,02,03,04,05,06,07,08,09,10,11,12,1.0,1.0,1.0*30
$GPRMC,195241.465,A,4531.125,N,12240.355,W,038.9,294.1,111218,000.0,W*60
$GPGGA,195242.465,4531.130,N,12240.368,W,1,12,1.0,0.0,M,0.0,M,,*7B
$GPGSA,A,3,01,02,03,04,05,06,07,08,09,10,11,12,1.0,1.0,1.0*30
$GPRMC,195242.465,A,4531.130,N,12240.368,W,038.9,294.1,111218,000.0,W*69
$GPGGA,195243.465,4531.136,N,12240.381,W,1,12,1.0,0.0,M,0.0,M,,*7B
$GPGSA,A,3,01,02,03,04,05,06,07,08,09,10,11,12,1.0,1.0,1.0*30
$GPRMC,195243.465,A,4531.136,N,12240.381,W,038.9,294.1,111218,000.0,W*69
$GPGGA,195244.465,4531.142,N,12240.394,W,1,12,1.0,0.0,M,0.0,M,,*7B
$GPGSA,A,3,01,02,03,04,05,06,07,08,09,10,11,12,1.0,1.0,1.0*30
$GPRMC,195244.465,A,4531.142,N,12240.394,W,038.9,303.6,111218,000.0,W*61
$GPGGA,195245.465,4531.149,N,12240.405,W,1,12,1.0,0.0,M,0.0,M,,*7E
$GPGSA,A,3,01,02,03,04,05,06,07,08,09,10,11,12,1.0,1.0,1.0*30
$GPRMC,195245.465,A,4531.149,N,12240.405,W,038.9,303.6,111218,000.0,W*64
$GPGGA,195246.465,4531.157,N,12240.416,W,1,12,1.0,0.0,M,0.0,M,,*70
$GPGSA,A,3,01,02,03,04,05,06,07,08,09,10,11,12,1.0,1.0,1.0*30
$GPRMC,195246.465,A,4531.157,N,12240.416,W,038.9,325.6,111218,000.0,W*6E
$GPGGA,195247.465,4531.167,N,12240.423,W,1,12,1.0,0.0,M,0.0,M,,*74
$GPGSA,A,3,01,02,03,04,05,06,07,08,09,10,11,12,1.0,1.0,1.0*30
$GPRMC,195247.465,A,4531.167,N,12240.423,W,038.9,002.4,111218,000.0,W*6E
$GPGGA,195248.465,4531.177,N,12240.422,W,1,12,1.0,0.0,M,0.0,M,,*7B
$GPGSA,A,3,01,02,03,04,05,06,07,08,09,10,11,12,1.0,1.0,1.0*30
$GPRMC,195248.465,A,4531.177,N,12240.422,W,038.9,029.8,111218,000.0,W*64
$GPGGA,195249.465,4531.187,N,12240.416,W,1,12,1.0,0.0,M,0.0,M,,*72
$GPGSA,A,3,01,02,03,04,05,06,07,08,09,10,11,12,1.0,1.0,1.0*30
$GPRMC,195249.465,A,4531.187,N,12240.416,W,038.9,029.8,111218,000.0,W*6D
$GPGGA,195250.465,4531.197,N,12240.411,W,1,12,1.0,0.0,M,0.0,M,,*7C
$GPGSA,A,3,01,02,03,04,05,06,07,08,09,10,11,12,1.0,1.0,1.0*30
$GPRMC,195250.465,A,4531.197,N,12240.411,W,038.9,286.7,111218,000.0,W*6B
$GPGGA,195251.465,4531.202,N,12240.425,W,1,12,1.0,0.0,M,0.0,M,,*75
$GPGSA,A,3,01,02,03,04,05,06,07,08,09,10,11,12,1.0,1.0,1.0*30
$GPRMC,195251.465,A,4531.202,N,12240.425,W,038.9,286.7,111218,000.0,W*62
$GPGGA,195252.465,4531.206,N,12240.439,W,1,12,1.0,0.0,M,0.0,M,,*7F
$GPGSA,A,3,01,02,03,04,05,06,07,08,09,10,11,12,1.0,1.0,1.0*30
$GPRMC,195252.465,A,4531.206,N,12240.439,W,038.9,286.7,111218,000.0,W*68
$GPGGA,195253.465,4531.210,N,12240.453,W,1,12,1.0,0.0,M,0.0,M,,*75
$GPGSA,A,3,01,02,03,04,05,06,07,08,09,10,11,12,1.0,1.0,1.0*30
$GPRMC,195253.465,A,4531.210,N,12240.453,W,038.9,286.7,111218,000.0,W*62
$GPGGA,195254.465,4531.214,N,12240.467,W,1,12,1.0,0.0,M,0.0,M,,*71
$GPGSA,A,3,01,02,03,04,05,06,07,08,09,10,11,12,1.0,1.0,1.0*30
$GPRMC,195254.465,A,4531.214,N,12240.467,W,038.9,025.0,111218,000.0,W*6A
$GPGGA,195255.465,4531.225,N,12240.463,W,1,12,1.0,0.0,M,0.0,M,,*76
$GPGSA,A,3,01,02,03,04,05,06,07,08,09,10,11,12,1.0,1.0,1.0*30
$GPRMC,195255.465,A,4531.225,N,12240.463,W,038.9,025.0,111218,000.0,W*6D
$GPGGA,195256.465,4531.235,N,12240.458,W,1,12,1.0,0.0,M,0.0,M,,*7C
$GPGSA,A,3,01,02,03,04,05,06,07,08,09,10,11,12,1.0,1.0,1.0*30
$GPRMC,195256.465,A,4531.235,N,12240.458,W,038.9,025.0,111218,000.0,W*67
$GPGGA,195257.465,4531.245,N,12240.453,W,1,12,1.0,0.0,M,0.0,M,,*71
$GPGSA,A,3,01,02,03,04,05,06,07,08,09,10,11,12,1.0,1.0,1.0*30
$GPRMC,195257.465,A,4531.245,N,12240.453,W,038.9,025.0,111218,000.0,W*6A
$GPGGA,195258.465,4531.255,N,12240.448,W,1,12,1.0,0.0,M,0.0,M,,*75
$GPGSA,A,3,01,02,03,04,05,06,07,08,09,10,11,12,1.0,1.0,1.0*30
$GPRMC,195258.465,A,4531.255,N,12240.448,W,038.9,285.9,111218,000.0,W*6F
$GPGGA,195259.465,4531.259,N,12240.462,W,1,12,1.0,0.0,M,0.0,M,,*70
$GPGSA,A,3,01,02,03,04,05,06,07,08,09,10,11,12,1.0,1.0,1.0*30
$GPRMC,195259.465,A,4531.259,N,12240.462,W,038.9,285.9,111218,000.0,W*6A
$GPGGA,195300.465,4531.263,N,12240.477,W,1,12,1.0,0.0,M,0.0,M,,*70
$GPGSA,A,3,01,02,03,04,05,06,07,08,09,10,11,12,1.0,1.0,1.0*30
$GPRMC,195300.465,A,4531.263,N,12240.477,W,038.9,285.9,111218,000.0,W*6A
$GPGGA,195301.465,4531.267,N,12240.491,W,1,12,1.0,0.0,M,0.0,M,,*7D
$GPGSA,A,3,01,02,03,04,05,06,07,08,09,10,11,12,1.0,1.0,1.0*30
$GPRMC,195301.465,A,4531.267,N,12240.491,W,038.9,285.9,111218,000.0,W*67
$GPGGA,195302.465,4531.272,N,12240.505,W,1,12,1.0,0.0,M,0.0,M,,*76
$GPGSA,A,3,01,02,03,04,05,06,07,08,09,10,11,12,1.0,1.0,1.0*30
$GPRMC,195302.465,A,4531.272,N,12240.505,W,038.9,027.1,111218,000.0,W*6E
$GPGGA,195303.465,4531.282,N,12240.500,W,1,12,1.0,0.0,M,0.0,M,,*7D
$GPGSA,A,3,01,02,03,04,05,06,07,08,09,10,11,12,1.0,1.0,1.0*30
$GPRMC,195303.465,A,4531.282,N,12240.500,W,038.9,027.1,111218,000.0,W*65
$GPGGA,195304.465,4531.292,N,12240.495,W,1,12,1.0,0.0,M,0.0,M,,*76
$GPGSA,A,3,01,02,03,04,05,06,07,08,09,10,11,12,1.0,1.0,1.0*30
$GPRMC,195304.465,A,4531.292,N,12240.495,W,038.9,027.1,111218,000.0,W*6E
$GPGGA,195305.465,4531.302,N,12240.490,W,1,12,1.0,0.0,M,0.0,M,,*7A
$GPGSA,A,3,01,02,03,04,05,06,07,08,09,10,11,12,1.0,1.0,1.0*30
$GPRMC,195305.465,A,4531.302,N,12240.490,W,038.9,027.1,111218,000.0,W*62
$GPGGA,195306.465,4531.312,N,12240.484,W,1,12,1.0,0.0,M,0.0,M,,*7D
$GPGSA,A,3,01,02,03,04,05,06,07,08,09,10,11,12,1.0,1.0,1.0*30
$GPRMC,195306.465,A,4531.312,N,12240.484,W,038.9,027.1,111218,000.0,W*65
$GPGGA,195307.465,4531.322,N,12240.479,W,1,12,1.0,0.0,M,0.0,M,,*7D
$GPGSA,A,3,01,02,03,04,05,06,07,08,09,10,11,12,1.0,1.0,1.0*30
$GPRMC,195307.465,A,4531.322,N,12240.479,W,038.9,027.1,111218,000.0,W*65
$GPGGA,195308.465,4531.332,N,12240.474,W,1,12,1.0,0.0,M,0.0,M,,*7E
$GPGSA,A,3,01,02,03,04,05,06,07,08,09,10,11,12,1.0,1.0,1.0*30
$GPRMC,195308.465,A,4531.332,N,12240.474,W,038.9,027.1,111218,000.0,W*66
$GPGGA,195309.465,4531.343,N,12240.469,W,1,12,1.0,0.0,M,0.0,M,,*75
$GPGSA,A,3,01,02,03,04,05,06,07,08,09,10,11,12,1.0,1.0,1.0*30
$GPRMC,195309.465,A,4531.343,N,12240.469,W,038.9,027.1,111218,000.0,W*6D
$GPGGA,195310.465,4531.353,N,12240.463,W,1,12,1.0,0.0,M,0.0,M,,*76
$GPGSA,A,3,01,02,03,04,05,06,07,08,09,10,11,12,1.0,1.0,1.0*30
$GPRMC,195310.465,A,4531.353,N,12240.463,W,038.9,027.1,111218,000.0,W*6E
